{
"type": "FeatureCollection",
"name": "talist_pt",
"crs": { "type": "name", "properties": { "name": "urn:ogc:def:crs:EPSG::6668" } },
"features": [
{ "type": "Feature", "properties": { "id": 1, "title": "東京中心部", "pref": "東京都", "label": "東京中心部", "img": "central_tokyo", "url": "https://twitter.com/tochirinuru/status/1642105694169038849", "text": "徳川家康による江戸開府以来の城下町。中世以前は北の本郷台地から今の銀座あたりまで江戸前島と呼ばれる砂...", "fX": 139.7592475, "fY": 35.683232 }, "geometry": { "type": "Point", "coordinates": [ 139.759247499999987, 35.683232 ] } },
{ "type": "Feature", "properties": { "id": 2, "title": "広島市中心部", "pref": "広島県", "label": "広島市中心部", "img": "central_hiroshima", "url": "https://twitter.com/tochirinuru/status/1659528849703710726", "text": "かつての広島藩の城下町。太田川が形成した三角州上に位置する。現在の相生通りや鯉城通りなどは埋め立てら...", "fX": 132.450657, "fY": 34.387358 }, "geometry": { "type": "Point", "coordinates": [ 132.450657, 34.387358 ] } },
{ "type": "Feature", "properties": { "id": 3, "title": "砺波平野", "pref": "富山県", "label": "砺波平野", "img": "tonami_plain", "url": "https://twitter.com/tochirinuru/status/1660605242738888704", "text": "庄川が山地から平野に出た青島町付近から扇状地を形成する。かつて川筋は幾条にもわかれて流れ、主流は古代...", "fX": 136.953764, "fY": 36.6106725 }, "geometry": { "type": "Point", "coordinates": [ 136.953764, 36.6106725 ] } },
{ "type": "Feature", "properties": { "id": 4, "title": "屋島", "pref": "香川県", "label": "屋島", "img": "yashima", "url": "https://twitter.com/tochirinuru/status/1660997027524911104", "text": "頂上が平たい典型的なメサ地形。中世までは文字通り島だったが、近世以降の埋立て等で四国本土と陸続きにな...", "fX": 134.1052795, "fY": 34.3517595 }, "geometry": { "type": "Point", "coordinates": [ 134.1052795, 34.3517595 ] } },
{ "type": "Feature", "properties": { "id": 5, "title": "熱田", "pref": "愛知県", "label": "熱田", "img": "atsuta", "url": "https://twitter.com/tochirinuru/status/1661329723686027264", "text": "名古屋市中心部から南北に細長く続く熱田台地の南端に熱田神宮が鎮座する。近世において周辺は東海道五十三...", "fX": 136.9049905, "fY": 35.1215165 }, "geometry": { "type": "Point", "coordinates": [ 136.9049905, 35.1215165 ] } },
{ "type": "Feature", "properties": { "id": 6, "title": "八代", "pref": "熊本県", "label": "八代", "img": "yatsushiro", "url": "https://twitter.com/tochirinuru/status/1661692357035847680", "text": "かつての八代藩の城下町。球磨川が多くの分流を伴って形成した沖積平野が広がり、現在でも複数の三角州が残...", "fX": 130.5955125, "fY": 32.502511 }, "geometry": { "type": "Point", "coordinates": [ 130.595512500000012, 32.502511 ] } },
{ "type": "Feature", "properties": { "id": 7, "title": "足利", "pref": "栃木県", "label": "足利", "img": "ashikaga", "url": "https://twitter.com/tochirinuru/status/1662052445953081344", "text": "室町将軍を輩出した足利氏の故地。周辺は渡良瀬川の氾濫原にあたり、河川跡地や低湿地が多い。中世に足利荘...", "fX": 139.444592, "fY": 36.3331705 }, "geometry": { "type": "Point", "coordinates": [ 139.444592, 36.3331705 ] } },
{ "type": "Feature", "properties": { "id": 8, "title": "京都盆地南部", "pref": "京都府", "label": "京都盆地南部", "img": "southern_kyoto_basin", "url": "https://twitter.com/tochirinuru/status/1662420133040754694", "text": "桂川、宇治川、木津川の3河川が集まる。淀付近にあった合流点は明治に府県境付近へと改修された。盆地で一...", "fX": 135.745611, "fY": 34.909019 }, "geometry": { "type": "Point", "coordinates": [ 135.745611, 34.909019 ] } },
{ "type": "Feature", "properties": { "id": 9, "title": "石狩川", "pref": "北海道", "label": "石狩川", "img": "ishikari_river", "url": "https://twitter.com/tochirinuru/status/1662784387157721088", "text": "石狩平野を激しく蛇行して流れていた石狩川は、明治以降の改修により河川延長が全体で60kmも短縮した。...", "fX": 141.646957, "fY": 43.204912 }, "geometry": { "type": "Point", "coordinates": [ 141.646957, 43.204912 ] } },
{ "type": "Feature", "properties": { "id": 10, "title": "出雲平野", "pref": "島根県", "label": "出雲平野", "img": "izumo_plain", "url": "https://twitter.com/tochirinuru/status/1663149044091465730", "text": "山地から出た斐伊川が宍道湖に注ぐ。大量の土砂の堆積により斐伊川は天井川となり、宍道湖を埋めた。繰り返...", "fX": 132.8389975, "fY": 35.4051925 }, "geometry": { "type": "Point", "coordinates": [ 132.8389975, 35.4051925 ] } },
{ "type": "Feature", "properties": { "id": 11, "title": "横浜市中心部", "pref": "神奈川県", "label": "横浜市中心部", "img": "central_yokohama", "url": "https://twitter.com/tochirinuru/status/1664227994079227906", "text": "近世以前の横浜市の中心部は大岡川上流側に湾入した入江だった。入江の入口をふさぐように横たわる砂州地形...", "fX": 139.63151, "fY": 35.452469 }, "geometry": { "type": "Point", "coordinates": [ 139.63151, 35.452469 ] } },
{ "type": "Feature", "properties": { "id": 12, "title": "安土", "pref": "滋賀県", "label": "安土", "img": "azuchi", "url": "https://twitter.com/tochirinuru/status/1663868008031477763", "text": "織田信長が安土城を築いた地。当時は北の琵琶湖から大中湖、小中湖と呼ばれる入江が湾入していた。周囲が湖...", "fX": 136.1315705, "fY": 35.16471 }, "geometry": { "type": "Point", "coordinates": [ 136.1315705, 35.16471 ] } },
{ "type": "Feature", "properties": { "id": 13, "title": "庄内平野", "pref": "山形県", "label": "庄内平野", "img": "shonai_plain", "url": "https://twitter.com/tochirinuru/status/1663531311339036682", "text": "海岸線に沿って広大な庄内砂丘が広がる。庄内平野を南から流れてきた赤川は、かつて庄内砂丘に遮られて北に...", "fX": 139.8349715, "fY": 38.8665225 }, "geometry": { "type": "Point", "coordinates": [ 139.8349715, 38.8665225 ] } },
{ "type": "Feature", "properties": { "id": 14, "title": "中津", "pref": "大分県", "label": "中津", "img": "nakatsu", "url": "https://twitter.com/tochirinuru/status/1664589263558803458", "text": "かつての中津藩城下町。黒田官兵衛による中津城築城に際してそれまで山国川本流だった大家川を締め切り、代...", "fX": 131.1924865, "fY": 33.600123 }, "geometry": { "type": "Point", "coordinates": [ 131.1924865, 33.600123 ] } },
{ "type": "Feature", "properties": { "id": 15, "title": "静岡市中心部", "pref": "静岡県", "label": "静岡市中心部", "img": "central_shizuoka", "url": "https://twitter.com/tochirinuru/status/1664958752737439745", "text": "かつての駿府城を中心とした城下町。安倍川は中世まで駿府城周辺に扇状地を形成し多方向に分流していたが、...", "fX": 138.3936165, "fY": 34.9752155 }, "geometry": { "type": "Point", "coordinates": [ 138.3936165, 34.9752155 ] } },
{ "type": "Feature", "properties": { "id": 16, "title": "倉敷平野", "pref": "岡山県", "label": "倉敷平野", "img": "kurashiki_plain", "url": "https://twitter.com/tochirinuru/status/1665315643317538817", "text": "一帯は古くから吉備の穴海と呼ばれる海域だったが、長年の干拓で陸地化された。かつての高梁川は小田川の合...", "fX": 133.7405635, "fY": 34.578047 }, "geometry": { "type": "Point", "coordinates": [ 133.7405635, 34.578047 ] } },
{ "type": "Feature", "properties": { "id": 17, "title": "新潟平野", "pref": "新潟県", "label": "新潟平野", "img": "niigata_plain", "url": "https://twitter.com/tochirinuru/status/1665678473103560704", "text": "海岸付近から内陸にかけて平行して幾重の砂丘列が連なる。それらの間に後背湿地が広がっていた。かつて阿賀...", "fX": 139.1185855, "fY": 37.918964 }, "geometry": { "type": "Point", "coordinates": [ 139.1185855, 37.918964 ] } },
{ "type": "Feature", "properties": { "id": 18, "title": "津市中心部", "pref": "三重県", "label": "津市中心部", "img": "central_tsu", "url": "https://twitter.com/tochirinuru/status/1666069296089554951", "text": "中世には安濃津湊と呼ばれ日本三津に数えられた港町だったが、15世紀末の明応地震の被害を受け衰退。現在...", "fX": 136.5043115, "fY": 34.717291 }, "geometry": { "type": "Point", "coordinates": [ 136.5043115, 34.717291 ] } },
{ "type": "Feature", "properties": { "id": 19, "title": "古河", "pref": "茨城県", "label": "古河", "img": "koga", "url": "https://twitter.com/tochirinuru/status/1667854747053998080", "text": "渡良瀬川のほとりの台地上に位置し古来からの関東平野北部の交通の要衝だった。中世には古河公方の本拠地、...", "fX": 139.675584, "fY": 36.1905315 }, "geometry": { "type": "Point", "coordinates": [ 139.675584, 36.1905315 ] } },
{ "type": "Feature", "properties": { "id": 20, "title": "佐賀市中心部", "pref": "佐賀県", "label": "佐賀市中心部", "img": "central_saga", "url": "https://twitter.com/tochirinuru/status/1666769865934524416", "text": "水路が張り巡らされた佐賀平野の中央部に位置する。多布施川からの水が水道橋を経て佐賀城内にも引き込まれ...", "fX": 130.3003195, "fY": 33.247137 }, "geometry": { "type": "Point", "coordinates": [ 130.3003195, 33.247137 ] } },
{ "type": "Feature", "properties": { "id": 21, "title": "前橋市中心部", "pref": "群馬県", "label": "前橋市中心部", "img": "central_maebashi", "url": "https://twitter.com/tochirinuru/status/1666405191116259328", "text": "渋川市付近から関東平野に出た利根川が前橋台地の間の峡谷に入る入口に位置する。中世以前の利根川は前橋台...", "fX": 139.0866995, "fY": 36.3933555 }, "geometry": { "type": "Point", "coordinates": [ 139.0866995, 36.3933555 ] } },
{ "type": "Feature", "properties": { "id": 22, "title": "神戸市中心部", "pref": "兵庫県", "label": "神戸市中心部", "img": "central_kobe", "url": "https://twitter.com/tochirinuru/status/1669683892553670656", "text": "六甲山地から流れ出る湊川や生田川はかつて天井川で水害が多かったため、明治になって相次いで現在の流路が...", "fX": 135.178978, "fY": 34.6803655 }, "geometry": { "type": "Point", "coordinates": [ 135.178978, 34.6803655 ] } },
{ "type": "Feature", "properties": { "id": 23, "title": "弘前市中心部", "pref": "青森県", "label": "弘前市中心部", "img": "central_hirosaki", "url": "https://twitter.com/tochirinuru/status/1667150908923461632", "text": "現存天守を持つ弘前城は南東から津軽平野に伸びる台地の縁の地形を利用した構造。西堀は17世紀に改修され...", "fX": 140.4629945, "fY": 40.606896 }, "geometry": { "type": "Point", "coordinates": [ 140.4629945, 40.606896 ] } },
{ "type": "Feature", "properties": { "id": 24, "title": "福岡市中心部", "pref": "福岡県", "label": "福岡市中心部", "img": "central_fukuoka", "url": "https://twitter.com/tochirinuru/status/1668221728408084480", "text": "かつての福岡藩城下町。福岡城が築かれた丘陵の西には古来から草香江と呼ばれる入り江があったが、築城時に...", "fX": 130.3795195, "fY": 33.5845545 }, "geometry": { "type": "Point", "coordinates": [ 130.379519499999986, 33.5845545 ] } },
{ "type": "Feature", "properties": { "id": 25, "title": "甲府盆地", "pref": "山梨県", "label": "甲府盆地", "img": "kofu_basin", "url": "https://twitter.com/tochirinuru/status/1668610627412316164", "text": "釜無川、御勅使川など複数の河川が扇状地を形成する。御勅使川は大きく5本の旧流路が発見されているが、そ...", "fX": 138.477387, "fY": 35.6353275 }, "geometry": { "type": "Point", "coordinates": [ 138.477387, 35.6353275 ] } },
{ "type": "Feature", "properties": { "id": 26, "title": "徳島市中心部", "pref": "徳島県", "label": "徳島市中心部", "img": "central_tokushima", "url": "https://twitter.com/tochirinuru/status/1668960520110768130", "text": "かつての徳島藩の城下町。徳島城が築かれた城山の南方に中心市街地が広がる。市内には新町川、助任川など吉...", "fX": 134.5589375, "fY": 34.068369 }, "geometry": { "type": "Point", "coordinates": [ 134.558937500000013, 34.068369 ] } },
{ "type": "Feature", "properties": { "id": 27, "title": "会津若松", "pref": "福島県", "label": "会津若松", "img": "aizu-wakamatsu", "url": "https://twitter.com/tochirinuru/status/1669317791420399616", "text": "かつての会津藩の城下町。若松城および城下町は湯川の扇状地である段丘上に位置する。湯川の段丘下の流路は...", "fX": 139.9214455, "fY": 37.4978545 }, "geometry": { "type": "Point", "coordinates": [ 139.9214455, 37.4978545 ] } },
{ "type": "Feature", "properties": { "id": 28, "title": "金沢市中心部", "pref": "石川県", "label": "金沢市中心部", "img": "central_kanazawa", "url": "https://twitter.com/tochirinuru/status/1670047524114300934", "text": "加賀百万石と称される加賀藩の城下町。浅野川と犀川の間の南東から北西に延びる小立野台地の先端に金沢城が...", "fX": 136.661382, "fY": 36.5657335 }, "geometry": { "type": "Point", "coordinates": [ 136.661382, 36.5657335 ] } },
{ "type": "Feature", "properties": { "id": 29, "title": "大阪市中心部", "pref": "大阪府", "label": "大阪市中心部", "img": "central_osaka", "url": "https://twitter.com/tochirinuru/status/1667474720651108352", "text": "南から上町台地と砂州が伸びる。古代には台地の東に大和川が流入する河内湖があったが、大阪湾への流出口が...", "fX": 135.5012085, "fY": 34.6982135 }, "geometry": { "type": "Point", "coordinates": [ 135.5012085, 34.6982135 ] } },
{ "type": "Feature", "properties": { "id": 30, "title": "宮崎平野", "pref": "宮崎県", "label": "宮崎平野", "img": "miyazaki_plain", "url": "https://twitter.com/tochirinuru/status/1670399967532576769", "text": "宮崎平野の南端の木花・本郷地区は寛文2（1662）年に発生した外所（とんどころ）地震による大津波と地...", "fX": 131.4277265, "fY": 31.842882 }, "geometry": { "type": "Point", "coordinates": [ 131.4277265, 31.842882 ] } },
{ "type": "Feature", "properties": { "id": 31, "title": "平泉", "pref": "岩手県", "label": "平泉", "img": "hiraizumi", "url": "https://twitter.com/tochirinuru/status/1670755899777122306", "text": "世界遺産でもある古代の奥州藤原氏の本拠地。北上川沿岸は氾濫原が広がるが、平泉の遺跡群は台地上に位置し...", "fX": 141.1215735, "fY": 38.9984035 }, "geometry": { "type": "Point", "coordinates": [ 141.121573500000011, 38.9984035 ] } },
{ "type": "Feature", "properties": { "id": 32, "title": "防府", "pref": "山口県", "label": "防府", "img": "hofu", "url": "https://twitter.com/tochirinuru/status/1671141598284111872", "text": "佐波川が形成した沖積平野が広がる。古代の周防国衙や防府天満宮は天神山麓の台地上に位置する。中世以降干...", "fX": 131.5358305, "fY": 34.0465575 }, "geometry": { "type": "Point", "coordinates": [ 131.5358305, 34.0465575 ] } },
{ "type": "Feature", "properties": { "id": 33, "title": "濃尾平野", "pref": "岐阜県", "label": "濃尾平野", "img": "nobi_plain", "url": "https://twitter.com/tochirinuru/status/1671489110987665408", "text": "岐阜市中心部の南方は木曽川の氾濫原。古代には現在の境川がおおむね木曽川の本流だったとされる。岐阜や加...", "fX": 136.757748, "fY": 35.3914235 }, "geometry": { "type": "Point", "coordinates": [ 136.757748, 35.3914235 ] } },
{ "type": "Feature", "properties": { "id": 34, "title": "和歌山平野", "pref": "和歌山県", "label": "和歌山平野", "img": "wakayama_plain", "url": "https://twitter.com/tochirinuru/status/1671868500489699328", "text": "中世までの紀の川は多数分流しながら海岸沿いの砂丘に阻まれて大きく蛇行し、南方の和歌浦方面や雑賀崎方面...", "fX": 135.177884, "fY": 34.219914 }, "geometry": { "type": "Point", "coordinates": [ 135.177884, 34.219914 ] } },
{ "type": "Feature", "properties": { "id": 35, "title": "旭", "pref": "千葉県", "label": "旭", "img": "asahi", "url": "https://twitter.com/tochirinuru/status/1672223913244508160", "text": "九十九里浜の海岸線に並行して幾条の浜堤と堤間湿地が交互に続く。集落や街道は浜堤の上に形成されている。...", "fX": 140.629592, "fY": 35.7370795 }, "geometry": { "type": "Point", "coordinates": [ 140.629592, 35.7370795 ] } },
{ "type": "Feature", "properties": { "id": 36, "title": "高知市中心部", "pref": "高知県", "label": "高知市中心部", "img": "central_kochi", "url": "https://twitter.com/tochirinuru/status/1672935261544775680", "text": "かつての高知藩の城下町。高知市中心部の一帯は紀貫之「土佐日記」の時代（10世紀頃）は海面下であったと...", "fX": 133.531394, "fY": 33.560303 }, "geometry": { "type": "Point", "coordinates": [ 133.531394, 33.560303 ] } },
{ "type": "Feature", "properties": { "id": 37, "title": "仙台市中心部", "pref": "宮城県", "label": "仙台市中心部", "img": "central_sendai", "url": "https://twitter.com/tochirinuru/status/1673302450441428993", "text": "かつての仙台藩の城下町。仙台市中心部は東方に走る長町－利府線断層を境に隆起した台地と、それらを広瀬川...", "fX": 140.8783295, "fY": 38.262399 }, "geometry": { "type": "Point", "coordinates": [ 140.8783295, 38.262399 ] } },
{ "type": "Feature", "properties": { "id": 38, "title": "鳥取平野", "pref": "鳥取県", "label": "鳥取平野", "img": "tottori_plain", "url": "https://twitter.com/tochirinuru/status/1673678516087300098", "text": "海岸沿いに広大な鳥取砂丘が広がる。平野中央部を流れる千代川は古来より氾濫が多く、大正から昭和初期にか...", "fX": 134.211345, "fY": 35.505038 }, "geometry": { "type": "Point", "coordinates": [ 134.211345, 35.505038 ] } },
{ "type": "Feature", "properties": { "id": 39, "title": "上田盆地", "pref": "長野県", "label": "上田盆地", "img": "ueda_basin", "url": "https://twitter.com/tochirinuru/status/1674028365387563008", "text": "千曲川沿いに幾重もの河岸段丘が形成されている。段丘は標高が高いほど成立年代は古くなるが、深井面・染谷...", "fX": 138.2736255, "fY": 36.387628 }, "geometry": { "type": "Point", "coordinates": [ 138.2736255, 36.387628 ] } },
{ "type": "Feature", "properties": { "id": 40, "title": "大和郡山市中心部", "pref": "奈良県", "label": "大和郡山市中心部", "img": "central_yamato-koriyama", "url": "https://twitter.com/tochirinuru/status/1674395315481477121", "text": "かつての郡山藩の城下町。北からのびる西ノ京丘陵の南端に位置する郡山城は豊臣秀吉の弟秀長によって大規模...", "fX": 135.7783555, "fY": 34.647275 }, "geometry": { "type": "Point", "coordinates": [ 135.7783555, 34.647275 ] } },
{ "type": "Feature", "properties": { "id": 41, "title": "川越市中心部", "pref": "埼玉県", "label": "川越市中心部", "img": "central_kawagoe", "url": "https://twitter.com/tochirinuru/status/1674747118362427392", "text": "かつての川越藩の城下町南西から北東に張り出した武蔵野台地の先端に川越城や中心市街地（旧城下町）が位置...", "fX": 139.484117, "fY": 35.913744 }, "geometry": { "type": "Point", "coordinates": [ 139.484117, 35.913744 ] } },
{ "type": "Feature", "properties": { "id": 42, "title": "福山市中心部", "pref": "広島県", "label": "福山市中心部", "img": "central_fukuyama", "url": "https://twitter.com/tochirinuru/status/1675478540350025728", "text": "かつての福山藩の城下町。芦田川河口に広がる福山平野は大半が近世以降の干拓地や埋立地で占められる。福山...", "fX": 133.3795165, "fY": 34.480128 }, "geometry": { "type": "Point", "coordinates": [ 133.3795165, 34.480128 ] } },
{ "type": "Feature", "properties": { "id": 43, "title": "浅草", "pref": "東京都", "label": "浅草", "img": "asakusa", "url": "https://twitter.com/tochirinuru/status/1678369742388891648", "text": "上野台地から東側はかつて利根川や荒川が流れ込む低湿地帯だった。浅草は低湿地帯に浮かぶ島のような砂州地...", "fX": 139.799845, "fY": 35.7169985 }, "geometry": { "type": "Point", "coordinates": [ 139.799845, 35.7169985 ] } },
{ "type": "Feature", "properties": { "id": 44, "title": "諫早平野", "pref": "長崎県", "label": "諫早平野", "img": "isahaya_plain", "url": "https://twitter.com/tochirinuru/status/1676215113530085378", "text": "諫早湾は有明海の潮流の関係で阿蘇山の火山灰や筑後川などの泥砂（ガタ土）が堆積しやすい場所にあるため、...", "fX": 130.11632, "fY": 32.8536805 }, "geometry": { "type": "Point", "coordinates": [ 130.11632, 32.8536805 ] } },
{ "type": "Feature", "properties": { "id": 45, "title": "赤穂", "pref": "兵庫県", "label": "赤穂", "img": "ako", "url": "https://twitter.com/tochirinuru/status/1676943303600930816", "text": "赤穂浪士で知られる赤穂藩の城下町。赤穂城が築城された近世初期には城の外堀まで海岸線が迫っていたとされ...", "fX": 134.3818045, "fY": 34.7528385 }, "geometry": { "type": "Point", "coordinates": [ 134.381804499999987, 34.7528385 ] } },
{ "type": "Feature", "properties": { "id": 46, "title": "秋田平野", "pref": "秋田県", "label": "秋田平野", "img": "akita_plain", "url": "https://twitter.com/tochirinuru/status/1675856131644882944", "text": "雄物川の下流域。かつての雄物川は海岸沿いに広がる砂丘に阻まれて北方の土崎方面に流れていたが、水害を防...", "fX": 140.101905, "fY": 39.725423 }, "geometry": { "type": "Point", "coordinates": [ 140.101905, 39.725423 ] } },
{ "type": "Feature", "properties": { "id": 47, "title": "福井市中心部", "pref": "福井県", "label": "福井市中心部", "img": "central_fukui", "url": "https://twitter.com/tochirinuru/status/1676580501241626624", "text": "かつての福井藩の城下町。福井城は江戸幕府の命による手伝普請で築城され、足羽川を天然の外堀とした三重の...", "fX": 136.203926, "fY": 36.0628505 }, "geometry": { "type": "Point", "coordinates": [ 136.203926, 36.0628505 ] } },
{ "type": "Feature", "properties": { "id": 48, "title": "大洲盆地", "pref": "愛媛県", "label": "大洲盆地", "img": "ozu_basin", "url": "https://twitter.com/tochirinuru/status/1678009332871630848", "text": "肱川の下流域にある。かつては水害の常襲地であり、盆地をくまなく巡る河川跡が見える。大洲城は肱川と久米...", "fX": 132.563653, "fY": 33.5204095 }, "geometry": { "type": "Point", "coordinates": [ 132.563653, 33.5204095 ] } },
{ "type": "Feature", "properties": { "id": 49, "title": "仙台平野", "pref": "宮城県", "label": "仙台平野", "img": "sendai_plain", "url": "https://twitter.com/tochirinuru/status/1677288388737765379", "text": "海岸線に沿って仙台砂丘が広がる。平行して幾条の浜堤が走り、内側には広大な後背湿地が広がっていた。砂丘...", "fX": 140.9039925, "fY": 38.161131 }, "geometry": { "type": "Point", "coordinates": [ 140.903992499999987, 38.161131 ] } },
{ "type": "Feature", "properties": { "id": 50, "title": "草津", "pref": "滋賀県", "label": "草津", "img": "kusatsu", "url": "https://twitter.com/tochirinuru/status/1679109023696818176", "text": "東海道と中山道が合流する旧宿場町。琵琶湖に注ぐ草津川は土砂の堆積により天井川となり、明治以降の鉄道や...", "fX": 135.961325, "fY": 35.0114175 }, "geometry": { "type": "Point", "coordinates": [ 135.961325, 35.0114175 ] } },
{ "type": "Feature", "properties": { "id": 51, "title": "函館", "pref": "北海道", "label": "函館", "img": "hakodate", "url": "https://twitter.com/tochirinuru/status/1679465051407929344", "text": "幕末には五稜郭が箱館戦争の舞台となり、明治以降は北海道の海の玄関口となった。函館山は陸繋砂州（トンボ...", "fX": 140.7500555, "fY": 41.7889245 }, "geometry": { "type": "Point", "coordinates": [ 140.7500555, 41.7889245 ] } },
{ "type": "Feature", "properties": { "id": 52, "title": "肝属平野", "pref": "鹿児島県", "label": "肝属平野", "img": "kimotsuki_plain", "url": "https://twitter.com/tochirinuru/status/1681284062206652417", "text": "笠野原台地など広大なシラス台地が広がり、その間を川がうがって谷を形成している。下流の沖積平野では随所...", "fX": 130.914588, "fY": 31.3628855 }, "geometry": { "type": "Point", "coordinates": [ 130.914588, 31.3628855 ] } },
{ "type": "Feature", "properties": { "id": 53, "title": "富山市中心部", "pref": "富山県", "label": "富山市中心部", "img": "central_toyama", "url": "https://twitter.com/tochirinuru/status/1680545949905563648", "text": "かつての富山藩の城下町。神通川は明治まで市中心部で大きく蛇行し、川縁に築城された富山城も天然の堀とし...", "fX": 137.207651, "fY": 36.6939505 }, "geometry": { "type": "Point", "coordinates": [ 137.207651, 36.6939505 ] } },
{ "type": "Feature", "properties": { "id": 54, "title": "柳川", "pref": "福岡県", "label": "柳川", "img": "yanagawa", "url": "https://twitter.com/tochirinuru/status/1679827973002895360", "text": "かつての柳河藩の城下町。中心部は堀割が縦横無尽にめぐらされ、水の都の別名を持つ。柳川城は埋め立てられ...", "fX": 130.394497, "fY": 33.139916 }, "geometry": { "type": "Point", "coordinates": [ 130.394497, 33.139916 ] } },
{ "type": "Feature", "properties": { "id": 55, "title": "水戸市中心部", "pref": "茨城県", "label": "水戸市中心部", "img": "central_mito", "url": "https://twitter.com/tochirinuru/status/1681647043113263104", "text": "かつての水戸藩の城下町。東西に走る舌状台地の先端に水戸城が位置する。北の那珂川と南の千波湖を天然の外...", "fX": 140.473359, "fY": 36.3791375 }, "geometry": { "type": "Point", "coordinates": [ 140.473359, 36.3791375 ] } },
{ "type": "Feature", "properties": { "id": 56, "title": "京都市中心部", "pref": "京都府", "label": "京都市中心部", "img": "central_kyoto", "url": "https://twitter.com/tochirinuru/status/1683082180946432000", "text": "平安遷都以来の歴史を持つ古都。地形は東西で異なり、鴨川扇状地で水はけのよい左京に対し桂川氾濫原の右京...", "fX": 135.736685, "fY": 35.0175355 }, "geometry": { "type": "Point", "coordinates": [ 135.736685, 35.0175355 ] } },
{ "type": "Feature", "properties": { "id": 57, "title": "岡崎平野", "pref": "愛知県", "label": "岡崎平野", "img": "okazaki_plain", "url": "https://twitter.com/tochirinuru/status/1682367105008820225", "text": "かつての矢作川は現在の矢作古川の流路を流れていたが、天井川となり八ツ面山に遮られるなどして水害が多発...", "fX": 137.0457745, "fY": 34.842592 }, "geometry": { "type": "Point", "coordinates": [ 137.0457745, 34.842592 ] } },
{ "type": "Feature", "properties": { "id": 58, "title": "高松平野", "pref": "香川県", "label": "高松平野", "img": "takamatsu_plain", "url": "https://twitter.com/tochirinuru/status/1682010039853400066", "text": "香東川はかつて大きく2つに分流し、東分流は紫雲山の東を流れ現在の高松市中心部一帯で三角州を作っていた...", "fX": 134.031272, "fY": 34.3071605 }, "geometry": { "type": "Point", "coordinates": [ 134.031272, 34.3071605 ] } },
{ "type": "Feature", "properties": { "id": 59, "title": "高田", "pref": "新潟県", "label": "高田", "img": "takada", "url": "https://twitter.com/tochirinuru/status/1683459443248476160", "text": "かつての高田藩の城下町。天下普請による高田城築城時にそれまで激しく蛇行していた関川を付け替え、外堀は...", "fX": 138.256309, "fY": 37.104698 }, "geometry": { "type": "Point", "coordinates": [ 138.256309, 37.104698 ] } },
{ "type": "Feature", "properties": { "id": 60, "title": "唐津", "pref": "佐賀県", "label": "唐津", "img": "karatsu", "url": "https://twitter.com/tochirinuru/status/1683827540518125568", "text": "かつての唐津藩の城下町。中世までは松浦川と波多川（現徳須恵川）はそれぞれ別に唐津湾に注いでいた。唐津...", "fX": 129.9806215, "fY": 33.429322 }, "geometry": { "type": "Point", "coordinates": [ 129.980621500000012, 33.429322 ] } },
{ "type": "Feature", "properties": { "id": 61, "title": "会の川", "pref": "埼玉県", "label": "会の川", "img": "ainokawa_river", "url": "https://twitter.com/tochirinuru/status/1684175116371120128", "text": "会の川はかつての利根川の主要な分流のひとつ。近世初期の利根川東遷事業によって締め切られた。上流から流...", "fX": 139.5735315, "fY": 36.165297 }, "geometry": { "type": "Point", "coordinates": [ 139.5735315, 36.165297 ] } },
{ "type": "Feature", "properties": { "id": 62, "title": "総社平野", "pref": "岡山県", "label": "総社平野", "img": "soja_plain", "url": "https://twitter.com/tochirinuru/status/1684542718515744770", "text": "古代には高梁川の分流が総社付近から東に流れ足守川と合流していたとされる。中世には分流が消え低湿地とな...", "fX": 133.787384, "fY": 34.6765045 }, "geometry": { "type": "Point", "coordinates": [ 133.787384, 34.6765045 ] } },
{ "type": "Feature", "properties": { "id": 63, "title": "韮崎", "pref": "山梨県", "label": "韮崎", "img": "nirasaki", "url": "https://twitter.com/tochirinuru/status/1684897266551898112", "text": "七里岩は八ヶ岳の山体崩壊による岩屑なだれが釜無川と塩川によって両側から浸食されて形成された舌状台地。...", "fX": 138.4402225, "fY": 35.732736 }, "geometry": { "type": "Point", "coordinates": [ 138.4402225, 35.732736 ] } },
{ "type": "Feature", "properties": { "id": 64, "title": "熊本市中心部", "pref": "熊本県", "label": "熊本市中心部", "img": "central_kumamoto", "url": "https://twitter.com/tochirinuru/status/1685258370432077825", "text": "かつての熊本藩の城下町。熊本城は北からのびる舌状台地の先端部にある。中世以前の白川は市中心部で大きく...", "fX": 130.712714, "fY": 32.797912 }, "geometry": { "type": "Point", "coordinates": [ 130.712714, 32.797912 ] } },
{ "type": "Feature", "properties": { "id": 65, "title": "大曲", "pref": "秋田県", "label": "大曲", "img": "omagari", "url": "https://twitter.com/tochirinuru/status/1640307686876274688", "text": "雄物川が横手盆地から狭窄部に入る入口に位置し、舟運が盛んな時代は河港として栄えた。町場一帯は自然堤防...", "fX": 140.470204, "fY": 39.459046 }, "geometry": { "type": "Point", "coordinates": [ 140.470204, 39.459046 ] } },
{ "type": "Feature", "properties": { "id": 66, "title": "上野盆地", "pref": "三重県", "label": "上野盆地", "img": "ueno_basin", "url": "https://twitter.com/tochirinuru/status/1640671071723745280", "text": "木津川が服部川などの支流と合流する一帯に低地が広がる。各河川の氾濫原であり（水色は旧流路）、また流出...", "fX": 136.1163245, "fY": 34.7690405 }, "geometry": { "type": "Point", "coordinates": [ 136.1163245, 34.7690405 ] } },
{ "type": "Feature", "properties": { "id": 67, "title": "小田原", "pref": "神奈川県", "label": "小田原", "img": "odawara", "url": "https://twitter.com/tochirinuru/status/1641032464671076360", "text": "小田原城は中世の後北条氏の本拠地。小田原征伐でも使われた城下町全体を取り囲む総構が特徴的で、丘陵の尾...", "fX": 139.1515445, "fY": 35.255832 }, "geometry": { "type": "Point", "coordinates": [ 139.1515445, 35.255832 ] } },
{ "type": "Feature", "properties": { "id": 68, "title": "日田盆地", "pref": "大分県", "label": "日田盆地", "img": "hita_basin", "url": "https://twitter.com/tochirinuru/status/1641394840742051840", "text": "盆地の中に日隈山、月隈山、星隈山などの丘が点在し、間を縫うように三隈川が分流して流れる。日隈山と月隈...", "fX": 130.9236005, "fY": 33.3168095 }, "geometry": { "type": "Point", "coordinates": [ 130.9236005, 33.3168095 ] } },
{ "type": "Feature", "properties": { "id": 69, "title": "小松平野", "pref": "石川県", "label": "小松平野", "img": "komatsu_plain", "url": "https://twitter.com/tochirinuru/status/1641757233225801729", "text": "日本海の海岸線に沿って広大な砂丘（黄色）が広がる。砂丘の内側には複数の海跡湖が広がる。かつては今江潟...", "fX": 136.439338, "fY": 36.3990615 }, "geometry": { "type": "Point", "coordinates": [ 136.439338, 36.3990615 ] } },
{ "type": "Feature", "properties": { "id": 70, "title": "安来平野", "pref": "島根県", "label": "安来平野", "img": "yasugi_plain", "url": "https://twitter.com/tochirinuru/status/1642124649382174720", "text": "飯梨川が中海に注ぐ。古来より土砂の堆積が激しく、川は天井川となり幾度も流路が変更された。現在の流路は...", "fX": 133.22721, "fY": 35.43595 }, "geometry": { "type": "Point", "coordinates": [ 133.22721, 35.43595 ] } },
{ "type": "Feature", "properties": { "id": 71, "title": "盛岡市中心部", "pref": "岩手県", "label": "盛岡市中心部", "img": "central_morioka", "url": "https://twitter.com/tochirinuru/status/1642482015684689922", "text": "かつての盛岡藩城下町。盛岡城は北上川と中津川の合流点近くの独立丘上に築かれた。北上川は城付近で大きく...", "fX": 141.150713, "fY": 39.7004645 }, "geometry": { "type": "Point", "coordinates": [ 141.150713, 39.7004645 ] } },
{ "type": "Feature", "properties": { "id": 72, "title": "堺市中心部", "pref": "大阪府", "label": "堺市中心部", "img": "central_sakai", "url": "https://twitter.com/tochirinuru/status/1642862878696042497", "text": "中世には日本最大の貿易港であり自治都市として栄えた。環濠都市として知られるが、現在残る内川や土居川、...", "fX": 135.477948, "fY": 34.579974 }, "geometry": { "type": "Point", "coordinates": [ 135.477948, 34.579974 ] } },
{ "type": "Feature", "properties": { "id": 73, "title": "鬼怒川扇状地", "pref": "栃木県", "label": "鬼怒川扇状地", "img": "kinugawa_fan", "url": "https://twitter.com/tochirinuru/status/1643206781420593154", "text": "鬼怒川が関東平野に出て扇状地を作る。現在の鬼怒川は氏家付近の西側を流れるが、2万年前以前は宝積寺台地...", "fX": 139.9499845, "fY": 36.678648 }, "geometry": { "type": "Point", "coordinates": [ 139.9499845, 36.678648 ] } },
{ "type": "Feature", "properties": { "id": 74, "title": "阿南平野", "pref": "徳島県", "label": "阿南平野", "img": "anan_plain", "url": "https://twitter.com/tochirinuru/status/1643569175212994563", "text": "四国山地から流れ出た那賀川が紀伊水道に注ぐ。10世紀初頭には一帯は海の中だったが次第に土砂が堆積し、...", "fX": 134.636893, "fY": 33.9406355 }, "geometry": { "type": "Point", "coordinates": [ 134.636893, 33.9406355 ] } },
{ "type": "Feature", "properties": { "id": 75, "title": "伊那盆地", "pref": "長野県", "label": "伊那盆地", "img": "ina_basin", "url": "https://twitter.com/tochirinuru/status/1643931559949643781", "text": "天竜川左岸に大規模な河岸段丘が広がる。西側に並行する木曽山脈の隆起により山麓に断層が形成され、そこに...", "fX": 137.9391005, "fY": 35.6976875 }, "geometry": { "type": "Point", "coordinates": [ 137.9391005, 35.6976875 ] } },
{ "type": "Feature", "properties": { "id": 76, "title": "岩国", "pref": "山口県", "label": "岩国", "img": "iwakuni", "url": "https://twitter.com/tochirinuru/status/1644293950402854916", "text": "錦川が三角州を形成して安芸灘に注ぐ。近世初期は現在の山陽線付近が海岸線で、そこから東側は干拓地である...", "fX": 132.220373, "fY": 34.157793 }, "geometry": { "type": "Point", "coordinates": [ 132.220373, 34.157793 ] } },
{ "type": "Feature", "properties": { "id": 77, "title": "阿賀川", "pref": "福島県", "label": "阿賀川", "img": "aga_river", "url": "https://twitter.com/tochirinuru/status/1644656337052106753", "text": "阿賀川が会津盆地から流れ出る箇所は狭窄部となっており、増水時には山崎新湖と呼ばれる湖が出現したとされ...", "fX": 139.801583, "fY": 37.621354 }, "geometry": { "type": "Point", "coordinates": [ 139.801583, 37.621354 ] } },
{ "type": "Feature", "properties": { "id": 78, "title": "延岡市中心部", "pref": "宮崎県", "label": "延岡市中心部", "img": "central_nobeoka", "url": "https://twitter.com/tochirinuru/status/1645018720639787010", "text": "かつての延岡藩の城下町。九州山地から流れる五ヶ瀬川は市中心部手前で大瀬川を分ける。延岡城は中州に位置...", "fX": 131.6604565, "fY": 32.5767495 }, "geometry": { "type": "Point", "coordinates": [ 131.6604565, 32.5767495 ] } },
{ "type": "Feature", "properties": { "id": 79, "title": "関宿", "pref": "千葉県", "label": "関宿", "img": "sekiyado", "url": "https://twitter.com/tochirinuru/status/1645381110954885120", "text": "かつての関宿藩の城下町。近世江戸幕府の利根川東遷以後は江戸川と利根川の分岐点となり舟運の要衝として栄...", "fX": 139.776049, "fY": 36.090921 }, "geometry": { "type": "Point", "coordinates": [ 139.776049, 36.090921 ] } },
{ "type": "Feature", "properties": { "id": 80, "title": "中村", "pref": "高知県", "label": "中村", "img": "nakamura", "url": "https://twitter.com/tochirinuru/status/1645743501190021122", "text": "土佐の小京都として知られる中世土佐一条氏の城下町。中村平野を流れる四万十川（旧称渡川）や支流の後川、...", "fX": 132.9338835, "fY": 32.982448 }, "geometry": { "type": "Point", "coordinates": [ 132.9338835, 32.982448 ] } },
{ "type": "Feature", "properties": { "id": 81, "title": "最上川", "pref": "山形県", "label": "最上川", "img": "mogami_river", "url": "https://twitter.com/tochirinuru/status/1646105892612628483", "text": "最上川が山形盆地から流出する丘陵地に隆起による激しい穿入蛇行が見られる。古来より舟運が盛んだった最上...", "fX": 140.3569075, "fY": 38.4940615 }, "geometry": { "type": "Point", "coordinates": [ 140.3569075, 38.4940615 ] } },
{ "type": "Feature", "properties": { "id": 82, "title": "串本", "pref": "和歌山県", "label": "串本", "img": "kushimoto", "url": "https://twitter.com/tochirinuru/status/1646468281442906112", "text": "本州最南端の潮岬は太平洋に浮かぶ島が陸繋砂州（トンボロ、ベージュ色）によって本州とつながった陸繋島。...", "fX": 135.7811665, "fY": 33.4596725 }, "geometry": { "type": "Point", "coordinates": [ 135.781166500000012, 33.4596725 ] } },
{ "type": "Feature", "properties": { "id": 83, "title": "丸岡", "pref": "福井県", "label": "丸岡", "img": "maruoka", "url": "https://twitter.com/tochirinuru/status/1646830663662960642", "text": "かつての丸岡藩の城下町。鳴鹿付近を扇頂とした九頭竜川扇状地（ベージュ色）の扇端に位置する。近世初期に...", "fX": 136.2751435, "fY": 36.138798 }, "geometry": { "type": "Point", "coordinates": [ 136.275143500000013, 36.138798 ] } },
{ "type": "Feature", "properties": { "id": 84, "title": "弓ヶ浜半島", "pref": "鳥取県", "label": "弓ヶ浜半島", "img": "yumigahama_peninsula", "url": "https://twitter.com/tochirinuru/status/1647194304799215617", "text": "全体が砂州でできた半島。奈良時代までは本州から分かれた島であったとされ、日野川から運ばれた土砂が堆積...", "fX": 133.256092, "fY": 35.50406 }, "geometry": { "type": "Point", "coordinates": [ 133.256092, 35.50406 ] } },
{ "type": "Feature", "properties": { "id": 85, "title": "遠州平野", "pref": "静岡県", "label": "遠州平野", "img": "enshu_plain", "url": "https://twitter.com/tochirinuru/status/1647555445454938112", "text": "東に天竜川氾濫原、西に三方原台地が広がる。もとは全体が天竜川扇状地だったが、隆起により河岸段丘が形成...", "fX": 137.764907, "fY": 34.7574255 }, "geometry": { "type": "Point", "coordinates": [ 137.764907, 34.7574255 ] } },
{ "type": "Feature", "properties": { "id": 86, "title": "筑豊炭田", "pref": "福岡県", "label": "筑豊炭田", "img": "chikuho_coal_field", "url": "https://twitter.com/tochirinuru/status/1647917834742419457", "text": "かつて日本最大の石炭産出量を誇り近代産業の発展を支えた。現在は炭鉱の採掘跡やボタ山、採掘によって陥没...", "fX": 130.7003545, "fY": 33.705301 }, "geometry": { "type": "Point", "coordinates": [ 130.7003545, 33.705301 ] } },
{ "type": "Feature", "properties": { "id": 87, "title": "八戸", "pref": "青森県", "label": "八戸", "img": "hachinohe", "url": "https://twitter.com/tochirinuru/status/1648280209672790017", "text": "かつての八戸藩の城下町。馬淵川は新井田川と河口を共有していたが、水害が多かったため戦後直接太平洋に注...", "fX": 141.4966535, "fY": 40.5237365 }, "geometry": { "type": "Point", "coordinates": [ 141.4966535, 40.5237365 ] } },
{ "type": "Feature", "properties": { "id": 88, "title": "彦根", "pref": "滋賀県", "label": "彦根", "img": "hikone", "url": "https://twitter.com/tochirinuru/status/1648642606610391041", "text": "かつての彦根藩の城下町。現存天守を持つ彦根城の北東は松原内湖に面し、現在の米原駅付近まで広がっていた...", "fX": 136.2696935, "fY": 35.275655 }, "geometry": { "type": "Point", "coordinates": [ 136.269693499999988, 35.275655 ] } },
{ "type": "Feature", "properties": { "id": 89, "title": "古利根川", "pref": "群馬県", "label": "古利根川", "img": "old_tone_river", "url": "https://twitter.com/tochirinuru/status/1649004995868790784", "text": "館林市付近には台地の間に川が流れていた跡と思われる低地がある。低地の東側には川によって運ばれた砂が堆...", "fX": 139.4723795, "fY": 36.251686 }, "geometry": { "type": "Point", "coordinates": [ 139.472379499999988, 36.251686 ] } },
{ "type": "Feature", "properties": { "id": 90, "title": "三次盆地", "pref": "広島県", "label": "三次盆地", "img": "miyoshi_basin", "url": "https://twitter.com/tochirinuru/status/1649367388473950208", "text": "江の川の上流域にあたる。広島県内の支流をすべて集め中国山地の脊梁部を横切る入口に位置する。流れ出る箇...", "fX": 132.8548765, "fY": 34.80759 }, "geometry": { "type": "Point", "coordinates": [ 132.854876499999989, 34.80759 ] } },
{ "type": "Feature", "properties": { "id": 91, "title": "下北沢", "pref": "東京都", "label": "下北沢", "img": "shimokitazawa", "url": "https://twitter.com/tochirinuru/status/1649717178302713860", "text": "武蔵野台地に小河川によって刻まれた谷が縦横に走る起伏の多い地形を見せる。小河川の多くは暗渠化されてい...", "fX": 139.667634, "fY": 35.663491 }, "geometry": { "type": "Point", "coordinates": [ 139.667634, 35.663491 ] } },
{ "type": "Feature", "properties": { "id": 92, "title": "河内平野", "pref": "大阪府", "label": "河内平野", "img": "kawachi_plain", "url": "https://twitter.com/tochirinuru/status/1650092149806071808", "text": "山地を抜けて平野に出た大和川はかつて北方に向かい、平野川や玉串川など分流して河内平野を流れ淀川に合流...", "fX": 135.5993555, "fY": 34.604377 }, "geometry": { "type": "Point", "coordinates": [ 135.5993555, 34.604377 ] } },
{ "type": "Feature", "properties": { "id": 93, "title": "岐阜", "pref": "岐阜県", "label": "岐阜", "img": "gifu", "url": "https://twitter.com/tochirinuru/status/1650454537784954881", "text": "長良川が濃尾平野に出るところで扇状地を形成している。かつては長良橋の下流で古川、古々川と3つに分流し...", "fX": 136.7455385, "fY": 35.4342325 }, "geometry": { "type": "Point", "coordinates": [ 136.7455385, 35.4342325 ] } },
{ "type": "Feature", "properties": { "id": 94, "title": "大分平野", "pref": "大分県", "label": "大分平野", "img": "oita_plain", "url": "https://twitter.com/tochirinuru/status/1650816931375579138", "text": "東西で大分川と大野川の2河川が三角州を作って別府湾に注ぐ。明治の頃の分流（青矢印）以外にもかつては多...", "fX": 131.6561225, "fY": 33.2372035 }, "geometry": { "type": "Point", "coordinates": [ 131.6561225, 33.2372035 ] } },
{ "type": "Feature", "properties": { "id": 95, "title": "苫小牧", "pref": "北海道", "label": "苫小牧", "img": "tomakomai", "url": "https://twitter.com/tochirinuru/status/1651179316494102530", "text": "一帯は広大な勇払原野で、海岸線と平行するように浜堤（ベージュ色）と堤間湿地（グレーまたは青緑色）が幾...", "fX": 141.6671135, "fY": 42.6662575 }, "geometry": { "type": "Point", "coordinates": [ 141.6671135, 42.6662575 ] } },
{ "type": "Feature", "properties": { "id": 96, "title": "七里御浜", "pref": "三重県", "label": "七里御浜", "img": "shichirimihama_beach", "url": "https://twitter.com/tochirinuru/status/1651541715180978176", "text": "熊野灘に面して約25kmにわたって続く国内最長の砂礫の浜。すぐ内側には砂礫が堆積した砂堆が帯状に分布...", "fX": 136.069794, "fY": 33.857958 }, "geometry": { "type": "Point", "coordinates": [ 136.069794, 33.857958 ] } },
{ "type": "Feature", "properties": { "id": 97, "title": "見沼", "pref": "埼玉県", "label": "見沼", "img": "minuma", "url": "https://twitter.com/tochirinuru/status/1651904102979317767", "text": "もとは台地にはさまれた奥東京湾の海跡湖。17世紀初めに八丁堤でせき止め農業用ため池とされ見沼溜井と呼...", "fX": 139.703608, "fY": 35.8809805 }, "geometry": { "type": "Point", "coordinates": [ 139.703608, 35.8809805 ] } },
{ "type": "Feature", "properties": { "id": 98, "title": "黒部平野", "pref": "富山県", "label": "黒部平野", "img": "kurobe_plain", "url": "https://twitter.com/tochirinuru/status/1652321841124614151", "text": "黒部川の扇状地。黒部川は暴れ川でかつて四十八ヶ瀬と称されるほど幾筋もの河道に分かれて流れていた。近世...", "fX": 137.4913215, "fY": 36.901393 }, "geometry": { "type": "Point", "coordinates": [ 137.4913215, 36.901393 ] } },
{ "type": "Feature", "properties": { "id": 99, "title": "郡山", "pref": "福島県", "label": "郡山", "img": "koriyama", "url": "https://twitter.com/tochirinuru/status/1652628868392681474", "text": "阿武隈川は暴れ川でかつて郡山市内で大きく蛇行していた。大正から昭和初めにかけて現在のような直線的な流...", "fX": 140.38727, "fY": 37.383606 }, "geometry": { "type": "Point", "coordinates": [ 140.38727, 37.383606 ] } },
{ "type": "Feature", "properties": { "id": 100, "title": "鳴門", "pref": "徳島県", "label": "鳴門", "img": "naruto", "url": "https://twitter.com/tochirinuru/status/1652991254156787712", "text": "かつて物資の積出港・集散地として栄えた撫養を中心とする。撫養川の東側は中世まで四国から切り離された島...", "fX": 134.609449, "fY": 34.190341 }, "geometry": { "type": "Point", "coordinates": [ 134.609449, 34.190341 ] } },
{ "type": "Feature", "properties": { "id": 101, "title": "等々力", "pref": "東京都", "label": "等等力", "img": "todoroki", "url": "https://twitter.com/tochirinuru/status/1653353639736475648", "text": "等々力渓谷は東京都区部唯一の渓谷。谷沢川は武蔵野台地の谷間の谷底平野を流れたあと、深い渓谷を作って武...", "fX": 139.649341, "fY": 35.602756 }, "geometry": { "type": "Point", "coordinates": [ 139.649341, 35.602756 ] } },
{ "type": "Feature", "properties": { "id": 102, "title": "清洲", "pref": "愛知県", "label": "清洲", "img": "kiyosu", "url": "https://twitter.com/tochirinuru/status/1653716038259814400", "text": "清洲城は尾張時代の織田信長の本拠地。のちに3重の堀を持つ大規模な城に改修された。曲輪に城下町を取り込...", "fX": 136.8412615, "fY": 35.2166255 }, "geometry": { "type": "Point", "coordinates": [ 136.8412615, 35.2166255 ] } },
{ "type": "Feature", "properties": { "id": 103, "title": "新潟市中心部", "pref": "新潟県", "label": "新潟市中心部", "img": "central_niigata", "url": "https://twitter.com/tochirinuru/status/1654078415547568134", "text": "海岸線に沿って砂丘が広がり、内陸側にも幾重の砂丘列（浜堤）が連なる。信濃川は上流の大河津分水通水で流...", "fX": 139.029708, "fY": 37.900172 }, "geometry": { "type": "Point", "coordinates": [ 139.029708, 37.900172 ] } },
{ "type": "Feature", "properties": { "id": 104, "title": "久留米", "pref": "福岡県", "label": "久留米", "img": "kurume", "url": "https://twitter.com/tochirinuru/status/1654440819875807233", "text": "筑後川は暴れ川でかつては筑後平野を乱流していた。水害を防ぐため蛇行部分をショートカットする捷水路が次...", "fX": 130.472946, "fY": 33.296479 }, "geometry": { "type": "Point", "coordinates": [ 130.472946, 33.296479 ] } },
{ "type": "Feature", "properties": { "id": 105, "title": "志太平野", "pref": "静岡県", "label": "志太平野", "img": "shida_plain", "url": "https://twitter.com/tochirinuru/status/1654803443670986752", "text": "南アルプスや志太山地から流れ出た大井川が扇状地を作って駿河湾に注ぐ。上流から流れ出る土砂流量が多かっ...", "fX": 138.2574465, "fY": 34.816031 }, "geometry": { "type": "Point", "coordinates": [ 138.257446499999986, 34.816031 ] } },
{ "type": "Feature", "properties": { "id": 106, "title": "木津川", "pref": "京都府", "label": "木津川", "img": "kizugawa_river", "url": "https://twitter.com/tochirinuru/status/1655165581279080450", "text": "丘陵地から流れ出た木津川が京都盆地を北に流れる。両岸の丘陵が風化しやすい花崗岩で構成されているため土...", "fX": 135.791767, "fY": 34.805377 }, "geometry": { "type": "Point", "coordinates": [ 135.791767, 34.805377 ] } },
{ "type": "Feature", "properties": { "id": 107, "title": "相模土手", "pref": "宮城県", "label": "相模土手", "img": "sagami_bank", "url": "https://twitter.com/tochirinuru/status/1655527975771856896", "text": "丘陵地を抜けて仙北平野に出た北上川はかつて屈曲、分流しながら流れていたとされる。17世紀初めに仙台藩...", "fX": 141.2411785, "fY": 38.687504 }, "geometry": { "type": "Point", "coordinates": [ 141.2411785, 38.687504 ] } },
{ "type": "Feature", "properties": { "id": 108, "title": "大口盆地", "pref": "鹿児島県", "label": "大口盆地", "img": "okuchi_basin", "url": "https://twitter.com/tochirinuru/status/1655890365671690241", "text": "川内川は筑後川に次ぐ九州第2の大河。大口盆地の水は曽木の滝に集まるが、狭窄部であるため過去に何度も水...", "fX": 130.6238365, "fY": 32.0214185 }, "geometry": { "type": "Point", "coordinates": [ 130.62383650000001, 32.0214185 ] } },
{ "type": "Feature", "properties": { "id": 109, "title": "富津岬", "pref": "千葉県", "label": "富津岬", "img": "cape_futtsu", "url": "https://twitter.com/tochirinuru/status/1656252749603012609", "text": "房総半島から西に砂嘴が突き出し東京湾と浦賀水道を隔てる。北の小糸川から排出された土砂と南の磯根崎方面...", "fX": 139.815788, "fY": 35.313677 }, "geometry": { "type": "Point", "coordinates": [ 139.815788, 35.313677 ] } },
{ "type": "Feature", "properties": { "id": 110, "title": "日本ライン", "pref": "岐阜県・愛知県", "label": "日本ライン", "img": "nihon_rhine", "url": "https://twitter.com/tochirinuru/status/1656615144649113606", "text": "木曽川が可茂盆地から濃尾平野へ出る途中にあたる各務原アルプスと尾張丘陵の間で峡谷を作って抜ける。チャ...", "fX": 136.9702865, "fY": 35.413489 }, "geometry": { "type": "Point", "coordinates": [ 136.970286499999986, 35.413489 ] } },
{ "type": "Feature", "properties": { "id": 111, "title": "釧路", "pref": "北海道", "label": "釧路", "img": "kushiro", "url": "https://twitter.com/tochirinuru/status/1656977524788690947", "text": "釧路川河口の釧路港を中心とした港町。市街地がある砂州の内陸側に日本最大の釧路湿原が広がる。阿寒川はか...", "fX": 144.388461, "fY": 43.003536 }, "geometry": { "type": "Point", "coordinates": [ 144.388461, 43.003536 ] } },
{ "type": "Feature", "properties": { "id": 112, "title": "松江市中心部", "pref": "島根県", "label": "松江市中心部", "img": "central_matsue", "url": "https://twitter.com/tochirinuru/status/1657347458933092352", "text": "かつての松江藩の城下町。城下町はほぼ砂州（黄色）の範囲に相当する。宍道湖から大橋川へ流れ出るたもとに...", "fX": 133.0563425, "fY": 35.468374 }, "geometry": { "type": "Point", "coordinates": [ 133.0563425, 35.468374 ] } },
{ "type": "Feature", "properties": { "id": 113, "title": "三条・燕", "pref": "新潟県", "label": "三条・燕", "img": "sanjo_tsubame", "url": "https://twitter.com/tochirinuru/status/1657702304651546624", "text": "越後平野中南部に位置する古くからの金物の町。中央部を流れる信濃川は数条に分流していたが、直江兼続によ...", "fX": 138.9638325, "fY": 37.664786 }, "geometry": { "type": "Point", "coordinates": [ 138.9638325, 37.664786 ] } },
{ "type": "Feature", "properties": { "id": 114, "title": "豊岡市中心部", "pref": "兵庫県", "label": "豊岡市中心部", "img": "central_toyooka", "url": "https://twitter.com/tochirinuru/status/1658064682891063300", "text": "かつての豊岡藩の城下町。円山川は豊岡城付近で蛇行して流れ、天然の堀としていた。水害が多かったため、大...", "fX": 134.826665, "fY": 35.531228 }, "geometry": { "type": "Point", "coordinates": [ 134.826665, 35.531228 ] } },
{ "type": "Feature", "properties": { "id": 115, "title": "相模野台地", "pref": "神奈川県", "label": "相模野台地", "img": "sagamino_plateau", "url": "https://twitter.com/tochirinuru/status/1658427072606265345", "text": "相模川によって形成された扇状地が隆起したのち、侵食作用によって河岸段丘が形成された。大きく相模原面、...", "fX": 139.3483975, "fY": 35.5528165 }, "geometry": { "type": "Point", "coordinates": [ 139.3483975, 35.5528165 ] } },
{ "type": "Feature", "properties": { "id": 116, "title": "吾南平野", "pref": "高知県", "label": "吾南平野", "img": "gonan_plain", "url": "https://twitter.com/tochirinuru/status/1658789466696478721", "text": "仁淀川左岸に位置する吾南平野にはかつて仁淀川の分流が流れていたとされる。17世紀に土佐藩家老の野中兼...", "fX": 133.496203, "fY": 33.5085335 }, "geometry": { "type": "Point", "coordinates": [ 133.496203, 33.5085335 ] } },
{ "type": "Feature", "properties": { "id": 117, "title": "浦和", "pref": "埼玉県", "label": "浦和", "img": "urawa", "url": "https://twitter.com/tochirinuru/status/1659151854352080896", "text": "旧中山道の宿場町。北から延びる大宮台地が河川によって谷が刻まれている。中山道のルートは大宮台地（オレ...", "fX": 139.646273, "fY": 35.8684455 }, "geometry": { "type": "Point", "coordinates": [ 139.646273, 35.8684455 ] } },
{ "type": "Feature", "properties": { "id": 118, "title": "福知山市中心部", "pref": "京都府", "label": "福知山市中心部", "img": "central_fukuchiyama", "url": "https://twitter.com/tochirinuru/status/1659514247624241154", "text": "かつての福知山藩の城下町。氷期には福知山盆地全体が湖であったとされる。中世まで由良川は土師川合流点か...", "fX": 135.1246045, "fY": 35.304844 }, "geometry": { "type": "Point", "coordinates": [ 135.1246045, 35.304844 ] } },
{ "type": "Feature", "properties": { "id": 119, "title": "酒田", "pref": "山形県", "label": "酒田", "img": "sakata", "url": "https://twitter.com/tochirinuru/status/1659884173312634880", "text": "最上川河口に位置する港町。最上川はかつては南から流れる赤川と合流して日本海に注いでいたが、大正から昭...", "fX": 139.867029, "fY": 38.934287 }, "geometry": { "type": "Point", "coordinates": [ 139.867029, 38.934287 ] } },
{ "type": "Feature", "properties": { "id": 120, "title": "多摩川低地", "pref": "東京都・神奈川県", "label": "多摩川低地", "img": "tamagawa_lowland", "url": "https://twitter.com/tochirinuru/status/1660246559555035136", "text": "武蔵野台地と下末吉台地にはさまれた多摩川の氾濫原。かつては各所で蛇行しながら流れていたが、長年の改修...", "fX": 139.6398785, "fY": 35.5924 }, "geometry": { "type": "Point", "coordinates": [ 139.6398785, 35.5924 ] } },
{ "type": "Feature", "properties": { "id": 121, "title": "関ヶ原", "pref": "岐阜県", "label": "関ヶ原", "img": "sekigahara", "url": "https://twitter.com/tochirinuru/status/1672546684528893952", "text": "古来から東西日本を結ぶ交通の要衝。四方に道が通じる盆地地形。伊吹山地と鈴鹿山脈の間を割るように関ヶ原...", "fX": 136.462405, "fY": 35.361016 }, "geometry": { "type": "Point", "coordinates": [ 136.462405, 35.361016 ] } },
{ "type": "Feature", "properties": { "id": 122, "title": "木曽三川", "pref": "岐阜県・愛知県", "label": "木曽三川", "img": "kiso-sansen", "url": "https://twitter.com/tochirinuru/status/1675084613482594304", "text": "濃尾平野の西側は養老山地との間に走る養老断層を境に沈降した地形で木曽川、長良川、揖斐川の木曽三川が集...", "fX": 136.673741, "fY": 35.207345 }, "geometry": { "type": "Point", "coordinates": [ 136.673741, 35.207345 ] } },
{ "type": "Feature", "properties": { "id": 123, "title": "佐野", "pref": "栃木県", "label": "佐野", "img": "sano", "url": "https://twitter.com/tochirinuru/status/1677621764497764353", "text": "近世初期に春日岡に築城された佐野城はわずか14年で廃城、以後は日光例幣使街道の宿場町天明宿として発展...", "fX": 139.5982075, "fY": 36.313028 }, "geometry": { "type": "Point", "coordinates": [ 139.5982075, 36.313028 ] } },
{ "type": "Feature", "properties": { "id": 124, "title": "筑後平野", "pref": "福岡県", "label": "筑後平野", "img": "chikugo_plain", "url": "https://twitter.com/tochirinuru/status/1678752113458028544", "text": "東西方向に伸びる耳納山地の北麓は急な断層崖となっている。山麓には流れ出た小河川が形成した小規模な扇状...", "fX": 130.654006, "fY": 33.335462 }, "geometry": { "type": "Point", "coordinates": [ 130.654006, 33.335462 ] } },
{ "type": "Feature", "properties": { "id": 125, "title": "行田", "pref": "埼玉県", "label": "行田", "img": "gyoda", "url": "https://twitter.com/tochirinuru/status/1680160737002676225", "text": "城下町の忍と宿場町の行田からなる。忍城は北の利根川と南の荒川にはさまれた要衝の地で、低湿地や沼沢地に...", "fX": 139.4618225, "fY": 36.1485335 }, "geometry": { "type": "Point", "coordinates": [ 139.461822500000011, 36.1485335 ] } },
{ "type": "Feature", "properties": { "id": 126, "title": "三島", "pref": "静岡県", "label": "三島", "img": "mishima", "url": "https://twitter.com/tochirinuru/status/1680909705269645316", "text": "中央部が富士山噴出の三島溶岩流による小高い台地のため、北方から流れる大場川や黄瀬川は東西の山すそを流...", "fX": 138.9119485, "fY": 35.126137 }, "geometry": { "type": "Point", "coordinates": [ 138.9119485, 35.126137 ] } },
{ "type": "Feature", "properties": { "id": 127, "title": "山形市中心部", "pref": "山形県", "label": "山形市中心部", "img": "central_yamagata", "url": "https://twitter.com/tochirinuru/status/1682696380991803393", "text": "かつての山形藩の城下町、兼羽州街道の宿場町。奥羽山脈から山形盆地に流れ出た馬見ヶ崎川が形成した扇状地...", "fX": 140.344548, "fY": 38.2557325 }, "geometry": { "type": "Point", "coordinates": [ 140.344548, 38.2557325 ] } },
{ "type": "Feature", "properties": { "id": 128, "title": "立ヶ花", "pref": "長野県", "label": "立ヶ花", "img": "tategahana", "url": "https://twitter.com/tochirinuru/status/1685618137172221952", "text": "千曲川が長野盆地西縁断層によって隆起する高丘丘陵との間を穿行蛇行しながら流れる。狭窄部の手前は洪水の...", "fX": 138.3312605, "fY": 36.7567435 }, "geometry": { "type": "Point", "coordinates": [ 138.331260500000013, 36.7567435 ] } },
{ "type": "Feature", "properties": { "id": 129, "title": "姉川", "pref": "滋賀県", "label": "姉川", "img": "anegawa_river", "url": "https://twitter.com/tochirinuru/status/1685992555157377024", "text": "姉川とその支流の高時川は近江盆地で扇状地、天井川、三角州を形成しながら琵琶湖に注ぐ。両河川と合流する...", "fX": 136.2802505, "fY": 35.416489 }, "geometry": { "type": "Point", "coordinates": [ 136.2802505, 35.416489 ] } },
{ "type": "Feature", "properties": { "id": 130, "title": "伊達盆地", "pref": "福島県", "label": "伊達盆地", "img": "date_basin", "url": "https://twitter.com/tochirinuru/status/1686360989581897728", "text": "福島盆地の北部、阿武隈川が宮城県境の阿武隈渓谷の狭窄部に入る手前に広がる。河岸段丘崖によって囲まれた...", "fX": 140.5734585, "fY": 37.841253 }, "geometry": { "type": "Point", "coordinates": [ 140.573458499999987, 37.841253 ] } },
{ "type": "Feature", "properties": { "id": 131, "title": "小倉", "pref": "福岡県", "label": "小倉", "img": "kokura", "url": "https://twitter.com/tochirinuru/status/1686721859931504640", "text": "かつての小倉藩の城下町。小倉城は舌状台地である小倉台地の先端に位置する。近世初期には砂州で隔てられた...", "fX": 130.8761575, "fY": 33.881847 }, "geometry": { "type": "Point", "coordinates": [ 130.8761575, 33.881847 ] } },
{ "type": "Feature", "properties": { "id": 132, "title": "佐倉", "pref": "千葉県", "label": "佐倉", "img": "sakura", "url": "https://twitter.com/tochirinuru/status/1687081298102525952", "text": "一帯は下総台地が広がり、その合間に河跡湖の印旛沼やそれに連なる低湿地、小河川によって侵食された細かい...", "fX": 140.208887, "fY": 35.7268895 }, "geometry": { "type": "Point", "coordinates": [ 140.208887, 35.7268895 ] } },
{ "type": "Feature", "properties": { "id": 133, "title": "名古屋北部", "pref": "愛知県", "label": "名古屋北部", "img": "northern_nagoya", "url": "https://twitter.com/tochirinuru/status/1687458578058375168", "text": "名古屋城は熱田台地の縁に位置する。庄内川は天井川で、増水時に水量が少ない大山川、合瀬川などの支流に逆...", "fX": 136.897116, "fY": 35.200028 }, "geometry": { "type": "Point", "coordinates": [ 136.897116, 35.200028 ] } },
{ "type": "Feature", "properties": { "id": 134, "title": "阿賀野川", "pref": "新潟県", "label": "阿賀野川", "img": "agano_river", "url": "https://twitter.com/tochirinuru/status/1687810405115346945", "text": "阿賀野川が新潟平野に流れ出たところでは、かつて自由蛇行していた河道の跡が多数見られる。河道が改修され...", "fX": 139.195833, "fY": 37.8020865 }, "geometry": { "type": "Point", "coordinates": [ 139.195833, 37.8020865 ] } },
{ "type": "Feature", "properties": { "id": 135, "title": "大和三山", "pref": "奈良県", "label": "大和三山", "img": "yamato-sanzan", "url": "https://twitter.com/tochirinuru/status/1688156343621029888", "text": "奈良盆地の南部に天香具山、畝傍山、耳成山の大和三山がそびえる。南方の飛鳥盆地から流れ出た飛鳥川が形成...", "fX": 135.8184385, "fY": 34.4995065 }, "geometry": { "type": "Point", "coordinates": [ 135.818438500000013, 34.4995065 ] } },
{ "type": "Feature", "properties": { "id": 136, "title": "鹿島", "pref": "茨城県", "label": "鹿島", "img": "kashima", "url": "https://twitter.com/tochirinuru/status/1688520366027657216", "text": "鹿島灘と北浦との間に北からのびる鹿島台地の先端に位置する。東側は直線的な海食崖、西側は開析谷が入り込...", "fX": 140.623047, "fY": 35.9774605 }, "geometry": { "type": "Point", "coordinates": [ 140.623047, 35.9774605 ] } },
{ "type": "Feature", "properties": { "id": 137, "title": "三保半島", "pref": "静岡県", "label": "三保半島", "img": "miho_peninsula", "url": "https://twitter.com/tochirinuru/status/1688896594761109504", "text": "駿河湾奥で折戸湾を抱え込むようにのびる。西方の安倍川河口から排出された砂礫が堆積してできたとされる砂...", "fX": 138.485198, "fY": 34.999265 }, "geometry": { "type": "Point", "coordinates": [ 138.485198, 34.999265 ] } },
{ "type": "Feature", "properties": { "id": 138, "title": "刈和野", "pref": "秋田県", "label": "刈和野", "img": "kariwano", "url": "https://twitter.com/tochirinuru/status/1689245147144605696", "text": "雄物川が出羽丘陵の間の狭窄地を穿入蛇行しながら流れる。川沿いにはかつて自由蛇行していたころの河道の跡...", "fX": 140.331137, "fY": 39.5254745 }, "geometry": { "type": "Point", "coordinates": [ 140.331137, 39.5254745 ] } },
{ "type": "Feature", "properties": { "id": 139, "title": "岡山市中心部", "pref": "岡山県", "label": "岡山市中心部", "img": "central_okayama", "url": "https://twitter.com/tochirinuru/status/1689607531520495617", "text": "かつての岡山藩の城下町。旭川は中世まで何度か流路を変え岡山平野を数条に分かれて児島湾に注いでいた。岡...", "fX": 133.9511915, "fY": 34.669346 }, "geometry": { "type": "Point", "coordinates": [ 133.9511915, 34.669346 ] } },
{ "type": "Feature", "properties": { "id": 140, "title": "江の島", "pref": "神奈川県", "label": "江の島", "img": "enoshima_island", "url": "https://twitter.com/tochirinuru/status/1689969921004834817", "text": "相模湾岸に位置する、陸繋砂嘴で繋がれた陸繋島。島の周囲は海食崖が発達している。1923年の大正関東地...", "fX": 139.482379, "fY": 35.3174855 }, "geometry": { "type": "Point", "coordinates": [ 139.482379, 35.3174855 ] } },
{ "type": "Feature", "properties": { "id": 141, "title": "松任平野", "pref": "石川県", "label": "松任平野", "img": "matto_plain", "url": "https://twitter.com/tochirinuru/status/1690332303715909632", "text": "手取川が鶴来町付近を扇頂とした扇状地を形成し、かつては幾条に分かれて流れていた。集落は氾濫を避けるた...", "fX": 136.558342, "fY": 36.492564 }, "geometry": { "type": "Point", "coordinates": [ 136.558342, 36.492564 ] } },
{ "type": "Feature", "properties": { "id": 142, "title": "札幌市中心部", "pref": "北海道", "label": "札幌市中心部", "img": "central_sapporo", "url": "https://twitter.com/tochirinuru/status/1690699600896876545", "text": "豊平川が形成した扇状地上に位置する。西側の札幌面の侵食と下流側への扇状地の拡大が激しく、東側の平岸面...", "fX": 141.35911, "fY": 43.049776 }, "geometry": { "type": "Point", "coordinates": [ 141.35911, 43.049776 ] } },
{ "type": "Feature", "properties": { "id": 143, "title": "別府", "pref": "大分県", "label": "別府", "img": "beppu", "url": "https://twitter.com/tochirinuru/status/1691057077299675136", "text": "日本有数の温泉地。やや傾斜が急な扇状地上に位置する。別府湾奥の南北に走る鉄輪断層や堀田－朝見川断層の...", "fX": 131.471608, "fY": 33.301705 }, "geometry": { "type": "Point", "coordinates": [ 131.471608, 33.301705 ] } },
{ "type": "Feature", "properties": { "id": 144, "title": "渋谷", "pref": "東京都", "label": "渋谷", "img": "shibuya", "url": "https://twitter.com/tochirinuru/status/1691419466599411714", "text": "都内有数の繁華街。東西の台地にはさまれ、渋谷川とその支流が集まる谷間に位置する。一帯は武蔵野台地の先...", "fX": 139.702964, "fY": 35.6591065 }, "geometry": { "type": "Point", "coordinates": [ 139.702964, 35.6591065 ] } },
{ "type": "Feature", "properties": { "id": 145, "title": "片浜十三里", "pref": "愛知県", "label": "片浜十三里", "img": "katahamajusanri_beach", "url": "https://twitter.com/tochirinuru/status/1691781860609957959", "text": "渥美半島の遠州灘側の海岸。伊良湖岬東方の日出の石門から浜名湖が外海に出る今切口まで距離が13里（約5...", "fX": 137.2590635, "fY": 34.653956 }, "geometry": { "type": "Point", "coordinates": [ 137.2590635, 34.653956 ] } },
{ "type": "Feature", "properties": { "id": 146, "title": "烏山", "pref": "栃木県", "label": "烏山", "img": "karasuyama", "url": "https://twitter.com/tochirinuru/status/1692144248395624813", "text": "かつての烏山藩の城下町。高原山の火山性堆積物でできた塩那丘陵（喜連川丘陵）の末端に位置し、那珂川とそ...", "fX": 140.143962, "fY": 36.6494715 }, "geometry": { "type": "Point", "coordinates": [ 140.143962, 36.6494715 ] } },
{ "type": "Feature", "properties": { "id": 147, "title": "松山平野", "pref": "愛媛県", "label": "松山平野", "img": "matsuyama_plain", "url": "https://twitter.com/tochirinuru/status/1692506632323043697", "text": "松山はかつての伊予松山藩の城下町。中心部は石手川の扇状地で、中世まで数条に分流し水害も多かった。初代...", "fX": 132.748661, "fY": 33.829446 }, "geometry": { "type": "Point", "coordinates": [ 132.748661, 33.829446 ] } },
{ "type": "Feature", "properties": { "id": 148, "title": "松島", "pref": "宮城県", "label": "松島", "img": "matsushima", "url": "https://twitter.com/tochirinuru/status/1692838826215882936", "text": "日本三景のひとつに数えられる景勝地。松島湾は海面上昇により丘陵地の山頂部が島として残ったとされる多島...", "fX": 141.1023905, "fY": 38.3479615 }, "geometry": { "type": "Point", "coordinates": [ 141.102390500000013, 38.3479615 ] } },
{ "type": "Feature", "properties": { "id": 149, "title": "那智勝浦", "pref": "和歌山県", "label": "那智勝浦", "img": "nachi-katsuura", "url": "https://twitter.com/tochirinuru/status/1693231404761726989", "text": "熊野三山のひとつ熊野那智大社や勝浦温泉で知られる港町。リアス海岸が多い熊野灘沿岸で、小規模な砂浜海岸...", "fX": 135.941863, "fY": 33.655627 }, "geometry": { "type": "Point", "coordinates": [ 135.941863, 33.655627 ] } },
{ "type": "Feature", "properties": { "id": 150, "title": "養老川", "pref": "千葉県", "label": "養老川", "img": "yoro_river", "url": "https://twitter.com/tochirinuru/status/1693593798214078575", "text": "上総丘陵から流れ出た養老川は渓谷を刻んだ後、下総台地の間を流れる。中流域では穿入蛇行していた流路の跡...", "fX": 140.1019045, "fY": 35.4760485 }, "geometry": { "type": "Point", "coordinates": [ 140.101904499999989, 35.4760485 ] } },
{ "type": "Feature", "properties": { "id": 151, "title": "佐陀川", "pref": "島根県", "label": "佐陀川", "img": "sada_river", "url": "https://twitter.com/tochirinuru/status/1693970183290048676", "text": "当地は澄水断層が形成した島根半島を横断する地溝帯で、宍道湖側には湖（入海）があった。「出雲国風土記」...", "fX": 133.001046, "fY": 35.5075885 }, "geometry": { "type": "Point", "coordinates": [ 133.001046, 35.5075885 ] } },
{ "type": "Feature", "properties": { "id": 152, "title": "福生", "pref": "東京都", "label": "福生", "img": "fussa", "url": "https://twitter.com/tochirinuru/status/1694326343352070363", "text": "多摩川の扇状地である武蔵野台地は長い年月の間に段階を経て多摩川に削り取られ、立川崖線など複数段の段丘...", "fX": 139.3381405, "fY": 35.7318695 }, "geometry": { "type": "Point", "coordinates": [ 139.3381405, 35.7318695 ] } },
{ "type": "Feature", "properties": { "id": 153, "title": "二俣", "pref": "静岡県", "label": "二俣", "img": "futamata", "url": "https://twitter.com/tochirinuru/status/1694689359499522325", "text": "天竜川扇状地の扇頂に位置する交通の要衝。二俣城と鳥羽山城は天竜川と二俣川に囲まれた丘の上に位置する要...", "fX": 137.8137445, "fY": 34.8595565 }, "geometry": { "type": "Point", "coordinates": [ 137.813744500000013, 34.8595565 ] } },
{ "type": "Feature", "properties": { "id": 154, "title": "宇都宮東部", "pref": "栃木県", "label": "宇都宮東部", "img": "eastern_utsunomiya", "url": "https://twitter.com/tochirinuru/status/1695043656183632379", "text": "鬼怒川の両岸に台地が広がり、特に左岸の宝積寺台地には谷津とよばれる小河川で侵食された谷が入り込む。台...", "fX": 139.9551775, "fY": 36.557207 }, "geometry": { "type": "Point", "coordinates": [ 139.9551775, 36.557207 ] } },
{ "type": "Feature", "properties": { "id": 155, "title": "人吉", "pref": "熊本県", "label": "人吉", "img": "hitoyoshi", "url": "https://twitter.com/tochirinuru/status/1695405735985979901", "text": "かつての人吉藩の城下町。人吉盆地の支流がすべて集まり、球磨川が日本三大急流のひとつである峡谷に向かう...", "fX": 130.746231, "fY": 32.219391 }, "geometry": { "type": "Point", "coordinates": [ 130.746231, 32.219391 ] } },
{ "type": "Feature", "properties": { "id": 156, "title": "寄居", "pref": "埼玉県", "label": "寄居", "img": "yorii", "url": "https://twitter.com/tochirinuru/status/1695768125625790882", "text": "荒川が秩父山地を抜け関東平野に出た場所に形成した扇状地（櫛挽台地）の扇頂に位置する交通の要衝。鉢形城...", "fX": 139.2514085, "fY": 36.1260705 }, "geometry": { "type": "Point", "coordinates": [ 139.2514085, 36.1260705 ] } },
{ "type": "Feature", "properties": { "id": 157, "title": "新湊", "pref": "富山県", "label": "新湊", "img": "shimminato", "url": "https://twitter.com/tochirinuru/status/1696130514850357489", "text": "富山湾岸の砂州上に位置する港町で、中世には放生津城に守護所が置かれた。内陸側にはかつて砂州によって隔...", "fX": 137.1113065, "fY": 36.760024 }, "geometry": { "type": "Point", "coordinates": [ 137.111306500000012, 36.760024 ] } },
{ "type": "Feature", "properties": { "id": 158, "title": "石狩", "pref": "北海道", "label": "石狩", "img": "ishikari", "url": "https://twitter.com/tochirinuru/status/1696508806308786544", "text": "石狩川は石狩湾に注ぐ手前で石狩砂丘にはばまれ、北東方向に大きく蛇行する。河口は時代とともに砂州の発達...", "fX": 141.348159, "fY": 43.241015 }, "geometry": { "type": "Point", "coordinates": [ 141.348159, 43.241015 ] } },
{ "type": "Feature", "properties": { "id": 159, "title": "亀の瀬", "pref": "大阪府・奈良県", "label": "亀の瀬", "img": "kamenose", "url": "https://twitter.com/tochirinuru/status/1696867572753596468", "text": "大和川が奈良盆地から生駒山地と金剛山地の間を抜け河内平野に出る狭窄部で、古来から龍田道が通る交通の要...", "fX": 135.666454, "fY": 34.5788395 }, "geometry": { "type": "Point", "coordinates": [ 135.666454, 34.5788395 ] } },
{ "type": "Feature", "properties": { "id": 160, "title": "木曽川", "pref": "愛知県", "label": "木曽川", "img": "kiso_river", "url": "https://twitter.com/tochirinuru/status/1697217925957259288", "text": "木曽川は古来から洪水が多く、濃尾平野の中を幾条もの分流を成し、主流も時代とともに変化した。近世初頭に...", "fX": 136.742363, "fY": 35.315763 }, "geometry": { "type": "Point", "coordinates": [ 136.742363, 35.315763 ] } },
{ "type": "Feature", "properties": { "id": 161, "title": "相模平野", "pref": "神奈川県", "label": "相模平野", "img": "sagami_plain", "url": "https://twitter.com/tochirinuru/status/1697580616949342609", "text": "相模川は相模湾に注ぐ手前で砂丘にはばまれ相模川低地で大きく蛇行していたとされる。軟弱地盤のため192...", "fX": 139.3726445, "fY": 35.3498085 }, "geometry": { "type": "Point", "coordinates": [ 139.3726445, 35.3498085 ] } },
{ "type": "Feature", "properties": { "id": 162, "title": "長岡市中心部", "pref": "新潟県", "label": "長岡市中心部", "img": "central_nagaoka", "url": "https://twitter.com/tochirinuru/status/1697912249480864059", "text": "かつての長岡藩の城下町。長岡城はそれまで拠点であった蔵王堂城に代わる城として築城され、周辺を流れる栖...", "fX": 138.8509225, "fY": 37.4510915 }, "geometry": { "type": "Point", "coordinates": [ 138.8509225, 37.4510915 ] } },
{ "type": "Feature", "properties": { "id": 163, "title": "室戸", "pref": "高知県", "label": "室戸", "img": "muroto", "url": "https://twitter.com/tochirinuru/status/1698304836910100516", "text": "安芸山地に連なる室戸半島は先端が室戸岬となって太平洋に突き出る。東側は海食崖が連なるが、西側には波に...", "fX": 134.1362855, "fY": 33.296834 }, "geometry": { "type": "Point", "coordinates": [ 134.136285500000014, 33.296834 ] } },
{ "type": "Feature", "properties": { "id": 164, "title": "水海道", "pref": "茨城県", "label": "水海道", "img": "mitsukaido", "url": "https://twitter.com/tochirinuru/status/1698667473753759946", "text": "一帯は台地に沿って平行して流れる鬼怒川と小貝川にはさまれた低湿地帯で、古来から水害が多い。鬼怒川は近...", "fX": 139.981656, "fY": 36.051821 }, "geometry": { "type": "Point", "coordinates": [ 139.981656, 36.051821 ] } },
{ "type": "Feature", "properties": { "id": 165, "title": "百瀬川", "pref": "滋賀県", "label": "百瀬川", "img": "momose_river", "url": "https://twitter.com/tochirinuru/status/1699029614465515821", "text": "琵琶湖西岸断層を境に隆起する野坂山地を流れる百瀬川は河川争奪で上流を石田川から奪うなど侵食力が強く、...", "fX": 136.0192395, "fY": 35.440416 }, "geometry": { "type": "Point", "coordinates": [ 136.0192395, 35.440416 ] } },
{ "type": "Feature", "properties": { "id": 166, "title": "清水", "pref": "山形県", "label": "清水", "img": "shimizu", "url": "https://twitter.com/tochirinuru/status/1699391999848124741", "text": "最上川が新庄盆地に出る場所に位置する。一帯には穿入蛇行した最上川が形成した河岸段丘や段丘崖、大規模な...", "fX": 140.243955, "fY": 38.694206 }, "geometry": { "type": "Point", "coordinates": [ 140.243955, 38.694206 ] } },
{ "type": "Feature", "properties": { "id": 167, "title": "白石平野", "pref": "佐賀県", "label": "白石平野", "img": "shiroishi_plain", "url": "https://twitter.com/tochirinuru/status/1699756902840771069", "text": "六角川、牛津川などが自由蛇行しながら流れ、随所にさらに蛇行した河道跡が残る。河口は有明海の最奥部であ...", "fX": 130.1446865, "fY": 33.196721 }, "geometry": { "type": "Point", "coordinates": [ 130.1446865, 33.196721 ] } },
{ "type": "Feature", "properties": { "id": 168, "title": "武蔵野", "pref": "東京都", "label": "武蔵野", "img": "musashino", "url": "https://twitter.com/tochirinuru/status/1700116775055331543", "text": "武蔵野台地の中央部には武蔵野三大湧水と呼ばれた井の頭池、善福寺池、三宝寺池をはじめ、武蔵野台地50m...", "fX": 139.59368, "fY": 35.714648 }, "geometry": { "type": "Point", "coordinates": [ 139.59368, 35.714648 ] } },
{ "type": "Feature", "properties": { "id": 169, "title": "丹那盆地", "pref": "静岡県", "label": "丹那盆地", "img": "tanna_basin", "url": "https://twitter.com/tochirinuru/status/1700479171611291821", "text": "南北に走る丹那断層の活動によってできた構造盆地。かつては豊富な湧水を生かしたワサビの生産が盛んであっ...", "fX": 139.0048385, "fY": 35.1038235 }, "geometry": { "type": "Point", "coordinates": [ 139.0048385, 35.1038235 ] } },
{ "type": "Feature", "properties": { "id": 170, "title": "松代", "pref": "長野県", "label": "松代", "img": "matsushiro", "url": "https://twitter.com/tochirinuru/status/1700841558931571041", "text": "かつての松代藩の城下町。千曲川はかつて松代城のすぐそばを流れ天然の堀とされていたが、18世紀の水害を...", "fX": 138.1957125, "fY": 36.575452 }, "geometry": { "type": "Point", "coordinates": [ 138.195712500000013, 36.575452 ] } },
{ "type": "Feature", "properties": { "id": 171, "title": "加計", "pref": "広島県", "label": "加計", "img": "kake", "url": "https://twitter.com/tochirinuru/status/1701203944167329982", "text": "太田川中流に位置する。南西から北東に走る筒賀断層に沿った流れが大きく南方に方向を変える。支流の筒賀川...", "fX": 132.297106, "fY": 34.5915535 }, "geometry": { "type": "Point", "coordinates": [ 132.297106, 34.5915535 ] } },
{ "type": "Feature", "properties": { "id": 172, "title": "屏風ヶ浦", "pref": "千葉県", "label": "屏風ヶ浦", "img": "byobugaura_beach", "url": "https://twitter.com/tochirinuru/status/1701566332108460311", "text": "下総台地が太平洋に削られた海食崖で、延長は約10km、断崖の高さは30～50mにおよぶ。断崖の侵食は...", "fX": 140.757544, "fY": 35.716573 }, "geometry": { "type": "Point", "coordinates": [ 140.757544, 35.716573 ] } },
{ "type": "Feature", "properties": { "id": 173, "title": "各務原", "pref": "岐阜県", "label": "各務原", "img": "kakamigahara", "url": "https://twitter.com/tochirinuru/status/1701928719965904909", "text": "各務原台地は強酸性の火山灰土壌（黒ボク土）におおわれ水利にも恵まれないため耕作に向かず、大正初めまで...", "fX": 136.874199, "fY": 35.4050945 }, "geometry": { "type": "Point", "coordinates": [ 136.874199, 35.4050945 ] } },
{ "type": "Feature", "properties": { "id": 174, "title": "天塩川", "pref": "北海道", "label": "天塩川", "img": "teshio_river", "url": "https://twitter.com/tochirinuru/status/1702291108926206117", "text": "天塩川の下流域はかつて蛇行が激しく流域は水害が多かったが、戦後の改修によって現在のように直線化された...", "fX": 141.877699, "fY": 44.9537465 }, "geometry": { "type": "Point", "coordinates": [ 141.877699, 44.9537465 ] } },
{ "type": "Feature", "properties": { "id": 175, "title": "鳴尾", "pref": "兵庫県", "label": "鳴尾", "img": "naruo", "url": "https://twitter.com/tochirinuru/status/1702653500247961907", "text": "武庫川は平野部を流れる下流部では天井川となる。河口付近ではかつて枝川や申川などの分流からなる三角州を...", "fX": 135.3717115, "fY": 34.716672 }, "geometry": { "type": "Point", "coordinates": [ 135.3717115, 34.716672 ] } },
{ "type": "Feature", "properties": { "id": 176, "title": "横須賀市中心部", "pref": "神奈川県", "label": "横須賀市中心部", "img": "central_yokosuka", "url": "https://twitter.com/tochirinuru/status/1703028892477669492", "text": "近代以降軍港として発展した街。中心市街地の大半が埋立地であるほか、ほとんどの海岸は埋立で改変され原形...", "fX": 139.666829, "fY": 35.292284 }, "geometry": { "type": "Point", "coordinates": [ 139.666829, 35.292284 ] } },
{ "type": "Feature", "properties": { "id": 177, "title": "桑名市中心部", "pref": "三重県", "label": "桑名市中心部", "img": "central_kuwana", "url": "https://twitter.com/tochirinuru/status/1703378264713289801", "text": "中世は木曽三川の河口に位置する港町・自由都市、近世は桑名藩の城下町・東海道の宿場町として発展。近世初...", "fX": 136.687517, "fY": 35.061351 }, "geometry": { "type": "Point", "coordinates": [ 136.687517, 35.061351 ] } },
{ "type": "Feature", "properties": { "id": 178, "title": "弥彦", "pref": "新潟県", "label": "弥彦", "img": "yahiko", "url": "https://twitter.com/tochirinuru/status/1703740656940687515", "text": "日本海から弥彦山地にえぎられた西蒲原平野は標高が低く、低湿地帯となっていた。矢川など排水が流れ込む小...", "fX": 138.8530255, "fY": 37.7143525 }, "geometry": { "type": "Point", "coordinates": [ 138.8530255, 37.7143525 ] } },
{ "type": "Feature", "properties": { "id": 179, "title": "脇町", "pref": "徳島県", "label": "脇町", "img": "wakimachi", "url": "https://twitter.com/tochirinuru/status/1704113106983534742", "text": "吉野川は中央構造線に沿って西から東に流れるが、流路は全体的に平地の南側に寄っている左岸は風化しやすい...", "fX": 134.151392, "fY": 34.0682125 }, "geometry": { "type": "Point", "coordinates": [ 134.151392, 34.0682125 ] } },
{ "type": "Feature", "properties": { "id": 180, "title": "高麗川", "pref": "埼玉県", "label": "高麗川", "img": "komagawa", "url": "https://twitter.com/tochirinuru/status/1704467944934379864", "text": "外秩父山地から関東平野に出た高麗川は自由蛇行をしながら段丘を形成して流れる。最上流側の蛇行地点はその...", "fX": 139.330652, "fY": 35.909258 }, "geometry": { "type": "Point", "coordinates": [ 139.330652, 35.909258 ] } },
{ "type": "Feature", "properties": { "id": 181, "title": "富士海岸", "pref": "静岡県", "label": "富士海岸", "img": "fuji_beach", "url": "https://twitter.com/tochirinuru/status/1704827817291375040", "text": "狩野川河口から富士川河口までの駿河湾岸はなだらかな田子の浦砂丘が続き、松林（千本松原）となっている。...", "fX": 138.778696, "fY": 35.1382015 }, "geometry": { "type": "Point", "coordinates": [ 138.778696, 35.1382015 ] } },
{ "type": "Feature", "properties": { "id": 182, "title": "石巻市中心部", "pref": "宮城県", "label": "石巻市中心部", "img": "central_ishinomaki", "url": "https://twitter.com/tochirinuru/status/1705190215835336958", "text": "北上川河口に位置する港町。近世初期の河川改修により北上川流域の支流がすべて集まるようになり、舟運によ...", "fX": 141.308041, "fY": 38.4613565 }, "geometry": { "type": "Point", "coordinates": [ 141.308041, 38.4613565 ] } },
{ "type": "Feature", "properties": { "id": 183, "title": "山崎", "pref": "京都府・大阪府", "label": "山崎", "img": "yamazaki", "url": "https://twitter.com/tochirinuru/status/1705552762820526512", "text": "南北から山地が迫る狭窄部で古来からの交通の要衝。京都盆地を流れる木津川、宇治川、桂川が集まり淀川とな...", "fX": 135.696473, "fY": 34.8922795 }, "geometry": { "type": "Point", "coordinates": [ 135.696473, 34.8922795 ] } },
{ "type": "Feature", "properties": { "id": 184, "title": "大洗", "pref": "茨城県", "label": "大洗", "img": "oarai", "url": "https://twitter.com/tochirinuru/status/1705922530459205870", "text": "付近の海岸は台地がせまり砂浜と岩礁が入り交じる。大洗岬北側の大洗海岸は明治から続く海水浴場。南側の磯...", "fX": 140.564039, "fY": 36.314046 }, "geometry": { "type": "Point", "coordinates": [ 140.564039, 36.314046 ] } },
{ "type": "Feature", "properties": { "id": 185, "title": "三国", "pref": "福井県", "label": "三国", "img": "mikuni", "url": "https://twitter.com/tochirinuru/status/1706277368946434436", "text": "九頭竜川は北の加越丘陵と南の丹生丘陵にはさまれて間口がせばまった福井平野を北に流れ、三里浜砂丘にはば...", "fX": 136.146183, "fY": 36.186016 }, "geometry": { "type": "Point", "coordinates": [ 136.146183, 36.186016 ] } },
{ "type": "Feature", "properties": { "id": 186, "title": "茅野", "pref": "長野県", "label": "茅野", "img": "chino", "url": "https://twitter.com/tochirinuru/status/1706639765909414106", "text": "八ヶ岳山麓に位置する高原都市。茅野市役所は日本の市役所の中で一番標高が高い（801m）。地質学的には...", "fX": 138.166037, "fY": 35.972159 }, "geometry": { "type": "Point", "coordinates": [ 138.166037, 35.972159 ] } },
{ "type": "Feature", "properties": { "id": 187, "title": "宮崎海岸", "pref": "宮崎県", "label": "宮崎海岸", "img": "miyazaki_beach", "url": "https://twitter.com/tochirinuru/status/1707002144023556137", "text": "日向灘に沿って直線的な海岸が続く。比較的奥行きのある宮崎砂丘が広がり、砂丘内部には明瞭な浜堤と堤間湿...", "fX": 131.443863, "fY": 31.971186 }, "geometry": { "type": "Point", "coordinates": [ 131.443863, 31.971186 ] } },
{ "type": "Feature", "properties": { "id": 188, "title": "小川原湖", "pref": "青森県", "label": "小川原湖", "img": "lake_ogawara", "url": "https://twitter.com/tochirinuru/status/1707364535559217566", "text": "下北半島の付け根に位置する。台地に入り込んだ入江の入口が砂丘でふさがれた海跡湖。周辺には田面木沼、市...", "fX": 141.33033, "fY": 40.86861 }, "geometry": { "type": "Point", "coordinates": [ 141.33033, 40.86861 ] } },
{ "type": "Feature", "properties": { "id": 189, "title": "荒川低地", "pref": "東京都・埼玉県", "label": "荒川低地", "img": "arakawa_lowland", "url": "https://twitter.com/tochirinuru/status/1707727170947493979", "text": "荒川はかつては氾濫原を激しく蛇行して流れていたが、1910年の大洪水を機に直線的な流路に改修された。...", "fX": 139.6737815, "fY": 35.798617 }, "geometry": { "type": "Point", "coordinates": [ 139.6737815, 35.798617 ] } },
{ "type": "Feature", "properties": { "id": 190, "title": "豊川", "pref": "愛知県", "label": "豊川", "img": "toyogawa_river", "url": "https://twitter.com/tochirinuru/status/1708089311818924470", "text": "豊川は下流で台地にはさまれた豊川低地を蛇行して流れる。古くから水害が多くかつては氾濫のたびに流路を変...", "fX": 137.392745, "fY": 34.81276 }, "geometry": { "type": "Point", "coordinates": [ 137.392745, 34.81276 ] } },
{ "type": "Feature", "properties": { "id": 191, "title": "荘内半島", "pref": "香川県", "label": "荘内半島", "img": "shonai_peninsula", "url": "https://twitter.com/tochirinuru/status/1708451702838534655", "text": "瀬戸内海に突き出て東の備讃瀬戸と西の燧灘とをわかつ。先端の紫雲出山や高谷半島は陸繋砂州（トンボロ）で...", "fX": 133.6240915, "fY": 34.229454 }, "geometry": { "type": "Point", "coordinates": [ 133.6240915, 34.229454 ] } },
{ "type": "Feature", "properties": { "id": 192, "title": "船橋", "pref": "千葉県", "label": "船橋", "img": "funabashi", "url": "https://twitter.com/tochirinuru/status/1708814082776907795", "text": "東京湾の最奥部に位置する。下総台地に海老川とその支流によって侵食された細かい谷地が樹状に入り込んだ低...", "fX": 139.991612, "fY": 35.706581 }, "geometry": { "type": "Point", "coordinates": [ 139.991612, 35.706581 ] } },
{ "type": "Feature", "properties": { "id": 193, "title": "野洲川", "pref": "滋賀県", "label": "野洲川", "img": "yasu_river", "url": "https://twitter.com/tochirinuru/status/1709176682501062941", "text": "近江盆地一角に広大な沖積平野を形成して琵琶湖のくびれを作る。かつて下流で主流は二手に分流しそれぞれ河...", "fX": 135.9822465, "fY": 35.0979825 }, "geometry": { "type": "Point", "coordinates": [ 135.9822465, 35.0979825 ] } },
{ "type": "Feature", "properties": { "id": 194, "title": "左沢", "pref": "山形県", "label": "左沢", "img": "aterazawa", "url": "https://twitter.com/tochirinuru/status/1709523765141356735", "text": "穿入蛇行する最上川が大きく方向を変える河岸段丘上に位置する。米沢盆地と山形盆地との結節点で近世には最...", "fX": 140.206404, "fY": 38.373437 }, "geometry": { "type": "Point", "coordinates": [ 140.206404, 38.373437 ] } },
{ "type": "Feature", "properties": { "id": 195, "title": "越谷", "pref": "埼玉県", "label": "越谷", "img": "koshigaya", "url": "https://twitter.com/tochirinuru/status/1709906438649512032", "text": "かつての日光街道の宿場町。一帯は東遷以前の利根川や荒川などの氾濫原で低湿地が多く、河川または河川跡の...", "fX": 139.793644, "fY": 35.9158715 }, "geometry": { "type": "Point", "coordinates": [ 139.793644, 35.9158715 ] } },
{ "type": "Feature", "properties": { "id": 196, "title": "直江津", "pref": "新潟県", "label": "直江津", "img": "naoetsu", "url": "https://twitter.com/tochirinuru/status/1710263645341425812", "text": "関川河口に位置する古くからの港町。海岸沿いの砂丘から内陸側は沖積平野と低湿地が広がるが、海岸線と河口...", "fX": 138.2428765, "fY": 37.16945 }, "geometry": { "type": "Point", "coordinates": [ 138.2428765, 37.16945 ] } },
{ "type": "Feature", "properties": { "id": 197, "title": "洞海湾", "pref": "福岡県", "label": "洞海湾", "img": "dokai_bay", "url": "https://twitter.com/tochirinuru/status/1710595828472299645", "text": "かつては水深が浅く入口が狭い洞穴のような湾であったことから洞海（くきのうみ）と呼ばれた。明治以降に筑...", "fX": 130.7784175, "fY": 33.8951575 }, "geometry": { "type": "Point", "coordinates": [ 130.778417499999989, 33.8951575 ] } },
{ "type": "Feature", "properties": { "id": 198, "title": "石和", "pref": "山梨県", "label": "石和", "img": "isawa", "url": "https://twitter.com/tochirinuru/status/1710988417419661463", "text": "かつての甲州街道の宿場町。笛吹川の扇状地に位置し古来から水害が多く、特に1907年の大水害によってそ...", "fX": 138.635638, "fY": 35.641718 }, "geometry": { "type": "Point", "coordinates": [ 138.635638, 35.641718 ] } },
{ "type": "Feature", "properties": { "id": 199, "title": "倉吉平野", "pref": "鳥取県", "label": "倉吉平野", "img": "kurayoshi_plain", "url": "https://twitter.com/tochirinuru/status/1711350806820389142", "text": "竹田川やその支流は水害のたびに流路を変え古代には東郷池に注いでいたとされる。近世には北条砂丘の天神山...", "fX": 133.843131, "fY": 35.4635215 }, "geometry": { "type": "Point", "coordinates": [ 133.843131, 35.4635215 ] } },
{ "type": "Feature", "properties": { "id": 200, "title": "山北", "pref": "神奈川県", "label": "山北", "img": "yamakita", "url": "https://twitter.com/tochirinuru/status/1711713187689529462", "text": "酒匂川の扇頂に位置する。古来から水害が多く、中世までは扇頂から複数の分流をなしていた。近世初期に小田...", "fX": 139.0923645, "fY": 35.3514875 }, "geometry": { "type": "Point", "coordinates": [ 139.0923645, 35.3514875 ] } },
{ "type": "Feature", "properties": { "id": 201, "title": "櫛田川", "pref": "三重県", "label": "櫛田川", "img": "kushida_river", "url": "https://twitter.com/tochirinuru/status/1712075585445327259", "text": "伊勢平野に出た櫛田川は祓川を分流し広大な扇状地や三角州を形成する。上流が多雨地帯のため古来から水害が...", "fX": 136.593189, "fY": 34.5600625 }, "geometry": { "type": "Point", "coordinates": [ 136.593189, 34.5600625 ] } },
{ "type": "Feature", "properties": { "id": 202, "title": "一関", "pref": "岩手県", "label": "一関", "img": "ichinoseki", "url": "https://twitter.com/tochirinuru/status/1712449838514844072", "text": "北上盆地の最南端に位置する。北上川が緩く傾斜した北上盆地から20km以上ある勾配の小さい狐禅寺狭窄部...", "fX": 141.1403705, "fY": 38.95685 }, "geometry": { "type": "Point", "coordinates": [ 141.140370499999989, 38.95685 ] } },
{ "type": "Feature", "properties": { "id": 203, "title": "明石市中心部", "pref": "兵庫県", "label": "明石市中心部", "img": "central_akashi", "url": "https://twitter.com/tochirinuru/status/1712800355396813174", "text": "かつての明石藩の城下町にして陸海交通の要衝。中心部は東西を台地にはさまれた明石川低地上で砂嘴でさえぎ...", "fX": 134.9900865, "fY": 34.6612715 }, "geometry": { "type": "Point", "coordinates": [ 134.9900865, 34.6612715 ] } },
{ "type": "Feature", "properties": { "id": 204, "title": "龍ヶ崎", "pref": "茨城県", "label": "龍ヶ崎", "img": "ryugasaki", "url": "https://twitter.com/tochirinuru/status/1713162738506281057", "text": "中心部は筑波・稲敷台地南端の小貝川の自然堤防上に位置する。かつては小貝川がすぐ南方を北西から南東方向...", "fX": 140.1832295, "fY": 35.8929595 }, "geometry": { "type": "Point", "coordinates": [ 140.18322950000001, 35.8929595 ] } },
{ "type": "Feature", "properties": { "id": 205, "title": "浜岡砂丘", "pref": "静岡県", "label": "浜岡砂丘", "img": "hamaoka_sand_dunes", "url": "https://twitter.com/tochirinuru/status/1713525134886068588", "text": "遠州灘沿いに続く南遠大砂丘の一角を占める広大な砂丘で池新田付近では内陸側に約3kmも入り込む。西方の...", "fX": 138.078661, "fY": 34.671881 }, "geometry": { "type": "Point", "coordinates": [ 138.078661, 34.671881 ] } },
{ "type": "Feature", "properties": { "id": 206, "title": "岩沼・亘理", "pref": "宮城県", "label": "岩沼・亘理", "img": "iwanuma_watari", "url": "https://twitter.com/tochirinuru/status/1713887525331140783", "text": "阿武隈川下流の両岸に位置する旧城下町。かつて蛇行して流れていた阿武隈川の河道跡が多く残り、自然堤防（...", "fX": 140.866828, "fY": 38.069731 }, "geometry": { "type": "Point", "coordinates": [ 140.866828, 38.069731 ] } },
{ "type": "Feature", "properties": { "id": 207, "title": "海部", "pref": "徳島県", "label": "海部", "img": "kaifu", "url": "https://twitter.com/tochirinuru/status/1714249911770681378", "text": "海部山地が海岸近くまでせまり、岬と入り江が交互にあらわれる変化に富んだ海岸が続く。海部川下流には沖積...", "fX": 134.3413355, "fY": 33.609668 }, "geometry": { "type": "Point", "coordinates": [ 134.341335500000014, 33.609668 ] } },
{ "type": "Feature", "properties": { "id": 208, "title": "日野", "pref": "東京都", "label": "日野", "img": "hino", "url": "https://twitter.com/tochirinuru/status/1714612292883521548", "text": "かつての甲州街道の宿場町。多摩川と支流浅川にはさまれた日野台地は4段の段丘面（河岸段丘）から構成され...", "fX": 139.378717, "fY": 35.669512 }, "geometry": { "type": "Point", "coordinates": [ 139.378717, 35.669512 ] } },
{ "type": "Feature", "properties": { "id": 209, "title": "養老", "pref": "岐阜県", "label": "養老", "img": "yoro", "url": "https://twitter.com/tochirinuru/status/1714974681873428834", "text": "南北に走る養老断層を境に西側の養老山地の隆起と東側の濃尾平野の沈降が続いている。山麓には山地から流れ...", "fX": 136.566367, "fY": 35.281692 }, "geometry": { "type": "Point", "coordinates": [ 136.566367, 35.281692 ] } },
{ "type": "Feature", "properties": { "id": 210, "title": "藤岡", "pref": "栃木県", "label": "藤岡", "img": "fujioka", "url": "https://twitter.com/tochirinuru/status/1715340127923560905", "text": "渡良瀬川下流に位置する。渡良瀬川は中世まで藤岡台地の南方を流れていたが、近世初期と明治～大正期の2度...", "fX": 139.6438695, "fY": 36.2428695 }, "geometry": { "type": "Point", "coordinates": [ 139.6438695, 36.2428695 ] } },
{ "type": "Feature", "properties": { "id": 211, "title": "佐伯", "pref": "大分県", "label": "佐伯", "img": "saiki", "url": "https://twitter.com/tochirinuru/status/1715699459034857652", "text": "かつての佐伯藩の城下町。番匠川下流の佐伯平野に位置し河口には三角州が形成されている。佐伯城は番匠川左...", "fX": 131.893187, "fY": 32.9577735 }, "geometry": { "type": "Point", "coordinates": [ 131.893187, 32.9577735 ] } },
{ "type": "Feature", "properties": { "id": 212, "title": "佐原", "pref": "千葉県", "label": "佐原", "img": "sawara", "url": "https://twitter.com/tochirinuru/status/1716061841129124295", "text": "中世までは香取海、近世以降は利根川に面する港町。佐原台地に入り込んだ谷津の入口に発達した砂州上に位置...", "fX": 140.5046655, "fY": 35.885116 }, "geometry": { "type": "Point", "coordinates": [ 140.504665499999987, 35.885116 ] } },
{ "type": "Feature", "properties": { "id": 213, "title": "紀の川", "pref": "和歌山県", "label": "紀の川", "img": "kinokawa_river", "url": "https://twitter.com/tochirinuru/status/1716424232794525963", "text": "紀の川中流部は中央構造線に並行して東西に流れる。根来断層を境に北側は和泉山地から和泉山脈に連なり、南...", "fX": 135.370059, "fY": 34.255743 }, "geometry": { "type": "Point", "coordinates": [ 135.370059, 34.255743 ] } },
{ "type": "Feature", "properties": { "id": 214, "title": "横手盆地", "pref": "秋田県", "label": "横手盆地", "img": "yokote_basin", "url": "https://twitter.com/tochirinuru/status/1716786618944643380", "text": "雄物川上流に広がる。構造盆地のためほぼ平坦な地形で、雄物川やその支流の乱流した流路跡が多数見られる。...", "fX": 140.491233, "fY": 39.265342 }, "geometry": { "type": "Point", "coordinates": [ 140.491233, 39.265342 ] } },
{ "type": "Feature", "properties": { "id": 215, "title": "益田", "pref": "島根県", "label": "益田", "img": "masuda", "url": "https://twitter.com/tochirinuru/status/1717149012200133065", "text": "高津川と益田川が形成した沖積平野に位置する。中世までの高津川は東方で益田川に合流していた。近世の平野...", "fX": 131.830723, "fY": 34.6744785 }, "geometry": { "type": "Point", "coordinates": [ 131.830723, 34.6744785 ] } },
{ "type": "Feature", "properties": { "id": 216, "title": "川島", "pref": "埼玉県", "label": "川島", "img": "kawajima", "url": "https://twitter.com/tochirinuru/status/1717511394571002294", "text": "その名の通り荒川とその支流に囲まれた島のような地域。中央には17世紀初めに荒川が西遷する以前の蛇行し...", "fX": 139.4755555, "fY": 36.0150925 }, "geometry": { "type": "Point", "coordinates": [ 139.475555500000013, 36.0150925 ] } },
{ "type": "Feature", "properties": { "id": 217, "title": "刈谷", "pref": "愛知県", "label": "刈谷", "img": "kariya", "url": "https://twitter.com/tochirinuru/status/1717873783808344336", "text": "かつての刈谷藩の城下町。衣浦湾は近世初期まで境川と逢妻川の合流点近くまで入り込んだ衣ヶ浦と呼ばれる入...", "fX": 136.997409, "fY": 34.989822 }, "geometry": { "type": "Point", "coordinates": [ 136.997409, 34.989822 ] } },
{ "type": "Feature", "properties": { "id": 218, "title": "村上", "pref": "新潟県", "label": "村上", "img": "murakami", "url": "https://twitter.com/tochirinuru/status/1718236176765550909", "text": "かつての村上藩の城下町。臥牛山が本丸の村上城はふもとの城下町全体を堀で囲った広大な曲輪を持った。三面...", "fX": 139.467766, "fY": 38.219496 }, "geometry": { "type": "Point", "coordinates": [ 139.467766, 38.219496 ] } },
{ "type": "Feature", "properties": { "id": 219, "title": "河内長野", "pref": "大阪府", "label": "河内長野", "img": "kawachi-nagano", "url": "https://twitter.com/tochirinuru/status/1718598558272872957", "text": "石川の上流に位置し、左岸に5層の段丘面を持つ大規模な河岸段丘が見られる。太古の石川は上流から現在の西...", "fX": 135.564766, "fY": 34.457504 }, "geometry": { "type": "Point", "coordinates": [ 135.564766, 34.457504 ] } },
{ "type": "Feature", "properties": { "id": 220, "title": "三崎", "pref": "神奈川県", "label": "三崎", "img": "misaki", "url": "https://twitter.com/tochirinuru/status/1718960956229943547", "text": "三浦半島の南端に位置する。城ヶ島は三崎漁港の天然の防波堤であり、戦前には砲台が設置された。1923年...", "fX": 139.6349645, "fY": 35.1549285 }, "geometry": { "type": "Point", "coordinates": [ 139.6349645, 35.1549285 ] } },
{ "type": "Feature", "properties": { "id": 221, "title": "呉羽丘陵", "pref": "富山県", "label": "呉羽丘陵", "img": "kureha_hills", "url": "https://twitter.com/tochirinuru/status/1719323343659106779", "text": "富山平野中央に位置し呉東と呉西に分かつ。太古の神通川は射水平野方面に流れ扇状地を形成していたが、呉羽...", "fX": 137.152376, "fY": 36.677179 }, "geometry": { "type": "Point", "coordinates": [ 137.152376, 36.677179 ] } },
{ "type": "Feature", "properties": { "id": 222, "title": "十三湖", "pref": "青森県", "label": "十三湖", "img": "lake_jusan", "url": "https://twitter.com/tochirinuru/status/1719685728089817568", "text": "津軽平野北端に位置する。砂嘴によって日本海から切り離された海跡湖で、砂州上には中世に栄えた港町十三湊...", "fX": 140.368881, "fY": 41.0272965 }, "geometry": { "type": "Point", "coordinates": [ 140.368881, 41.0272965 ] } },
{ "type": "Feature", "properties": { "id": 223, "title": "土庄", "pref": "香川県", "label": "土庄", "img": "tonosho", "url": "https://twitter.com/tochirinuru/status/1720048109705670682", "text": "土庄港は瀬戸内海に浮かぶ小豆島の玄関口。中心部は世界一狭い海峡とされる土渕海峡で分断されるが、両岸一...", "fX": 134.1839645, "fY": 34.4842705 }, "geometry": { "type": "Point", "coordinates": [ 134.1839645, 34.4842705 ] } },
{ "type": "Feature", "properties": { "id": 224, "title": "土浦", "pref": "茨城県", "label": "土浦", "img": "tsuchiura", "url": "https://twitter.com/tochirinuru/status/1720410499463160256", "text": "かつての土浦藩の城下町。霞ヶ浦に注ぐ桜川の下流域に位置し、周辺は新治台地と筑波台地にはさまれた低地の...", "fX": 140.197349, "fY": 36.0835255 }, "geometry": { "type": "Point", "coordinates": [ 140.197349, 36.0835255 ] } },
{ "type": "Feature", "properties": { "id": 225, "title": "安曇川", "pref": "滋賀県", "label": "安曇川", "img": "adogawa_river", "url": "https://twitter.com/tochirinuru/status/1720772882232492399", "text": "琵琶湖の西岸に位置する。比良山地や饗庭野台地など西方の山地は琵琶湖西岸断層を境に隆起しており、それら...", "fX": 136.0175655, "fY": 35.3375495 }, "geometry": { "type": "Point", "coordinates": [ 136.017565499999989, 35.3375495 ] } },
{ "type": "Feature", "properties": { "id": 226, "title": "安曇野", "pref": "長野県", "label": "安曇野", "img": "azumino", "url": "https://twitter.com/tochirinuru/status/1721135273680253014", "text": "松本盆地の中央部に位置する。糸魚川静岡構造線の一部をなす松本盆地東縁断層に並行して南北から犀川や高瀬...", "fX": 137.9121065, "fY": 36.359701 }, "geometry": { "type": "Point", "coordinates": [ 137.9121065, 36.359701 ] } },
{ "type": "Feature", "properties": { "id": 227, "title": "熊本平野南部", "pref": "熊本県", "label": "熊本平野南部", "img": "southern_kumamoto_plain", "url": "https://twitter.com/tochirinuru/status/1721497664926208173", "text": "緑川やその支流は近世初期に加藤清正によって川の付け替え、堤防の構築など各種治水事業が行われた。水前寺...", "fX": 130.752883, "fY": 32.743125 }, "geometry": { "type": "Point", "coordinates": [ 130.752883, 32.743125 ] } },
{ "type": "Feature", "properties": { "id": 228, "title": "国府台", "pref": "千葉県", "label": "国府台", "img": "konodai", "url": "https://twitter.com/tochirinuru/status/1721860055362892070", "text": "下総台地の南西端に位置する。台地が連続する北方以外の三方が江戸川や真間川などの低湿地に囲まれた舌状台...", "fX": 139.9044085, "fY": 35.756711 }, "geometry": { "type": "Point", "coordinates": [ 139.904408499999988, 35.756711 ] } },
{ "type": "Feature", "properties": { "id": 229, "title": "大井川", "pref": "静岡県", "label": "大井川", "img": "oi_river", "url": "https://twitter.com/tochirinuru/status/1722222442460930530", "text": "大井川は中世以前は牛尾山の西側を流れていた。洪水対策と新田開発目的で、15世紀末に山内一豊らによって...", "fX": 138.1413175, "fY": 34.8383875 }, "geometry": { "type": "Point", "coordinates": [ 138.141317500000014, 34.8383875 ] } },
{ "type": "Feature", "properties": { "id": 230, "title": "十勝川", "pref": "北海道", "label": "十勝川", "img": "tokachi_river", "url": "https://twitter.com/tochirinuru/status/1722587338252173691", "text": "かつての十勝川は中流域で大きく蛇行していた。付近の開拓にあたり多発する洪水が妨げとなったため、約15...", "fX": 143.4556315, "fY": 42.8690225 }, "geometry": { "type": "Point", "coordinates": [ 143.45563150000001, 42.8690225 ] } },
{ "type": "Feature", "properties": { "id": 231, "title": "岡山平野", "pref": "岡山県", "label": "岡山平野", "img": "okayama_plain", "url": "https://twitter.com/tochirinuru/status/1722952303869890667", "text": "かつて一帯は吉備の穴海と呼ばれる遠浅の内海で、児島半島は本州から切り離された島であった。旭川などの土...", "fX": 133.888106, "fY": 34.5803195 }, "geometry": { "type": "Point", "coordinates": [ 133.888106, 34.5803195 ] } },
{ "type": "Feature", "properties": { "id": 232, "title": "小浜", "pref": "福井県", "label": "小浜", "img": "obama", "url": "https://twitter.com/tochirinuru/status/1723279400941371853", "text": "かつての小浜藩の城下町。小浜城は北川、南川などの複合三角州上に築かれ、海と周囲の河川を天然の堀として...", "fX": 135.752435, "fY": 35.500908 }, "geometry": { "type": "Point", "coordinates": [ 135.752435, 35.500908 ] } },
{ "type": "Feature", "properties": { "id": 233, "title": "久喜", "pref": "埼玉県", "label": "久喜", "img": "kuki", "url": "https://twitter.com/tochirinuru/status/1723671988047343769", "text": "猿島台地と大宮台地にはさまれた中川低地はかつての利根川と渡良瀬川の乱流地帯。利根川東遷で本流が移動し...", "fX": 139.6893165, "fY": 36.0955605 }, "geometry": { "type": "Point", "coordinates": [ 139.6893165, 36.0955605 ] } },
{ "type": "Feature", "properties": { "id": 234, "title": "赤湯", "pref": "山形県", "label": "赤湯", "img": "akayu", "url": "https://twitter.com/tochirinuru/status/1724088982949220381", "text": "中世以来の歴史を持つ温泉地。米沢盆地東北端の吉野川扇状地扇端に位置する。東方の大谷地は陥没盆地に由来...", "fX": 140.1761055, "fY": 38.0442525 }, "geometry": { "type": "Point", "coordinates": [ 140.1761055, 38.0442525 ] } },
{ "type": "Feature", "properties": { "id": 235, "title": "都城盆地", "pref": "宮崎県", "label": "都城盆地", "img": "miyakonojo_basin", "url": "https://twitter.com/tochirinuru/status/1724396761517842533", "text": "大淀川上流に位置する。太古は盆地全体が湖で、姶良カルデラ由来の火砕流が流れ込み形成されたとされる。中...", "fX": 131.0790825, "fY": 31.7757585 }, "geometry": { "type": "Point", "coordinates": [ 131.0790825, 31.7757585 ] } },
{ "type": "Feature", "properties": { "id": 236, "title": "湯河原", "pref": "神奈川県", "label": "湯河原", "img": "yugawara", "url": "https://twitter.com/tochirinuru/status/1724759161551065508", "text": "古代以来の歴史を持つ温泉地。湯河原中心部は千歳川と新崎川が形成した複合扇状地。千歳川流域は湯河原火山...", "fX": 139.083524, "fY": 35.162181 }, "geometry": { "type": "Point", "coordinates": [ 139.083524, 35.162181 ] } },
{ "type": "Feature", "properties": { "id": 237, "title": "揖斐川", "pref": "岐阜県", "label": "揖斐川", "img": "ibi_river", "url": "https://twitter.com/tochirinuru/status/1725124053420155075", "text": "濃尾平野北西端に位置する。山地から流れ出た揖斐川とその支流の根尾川や粕川が形成した広大な複合扇状地が...", "fX": 136.608145, "fY": 35.451755 }, "geometry": { "type": "Point", "coordinates": [ 136.608145, 35.451755 ] } },
{ "type": "Feature", "properties": { "id": 238, "title": "品井沼", "pref": "宮城県", "label": "品井沼", "img": "lake_shinainuma", "url": "https://twitter.com/tochirinuru/status/1725483926016164184", "text": "かつて松島丘陵北方にあった品井沼は増水時に鳴瀬川の水が逆流するなど水害が多かった。近世から干拓が進め...", "fX": 141.0740235, "fY": 38.4228785 }, "geometry": { "type": "Point", "coordinates": [ 141.07402350000001, 38.4228785 ] } },
{ "type": "Feature", "properties": { "id": 239, "title": "目白", "pref": "東京都", "label": "目白", "img": "mejiro", "url": "https://twitter.com/tochirinuru/status/1725818776946680185", "text": "武蔵野台地が神田川や小河川によって削られた谷間によって隔てられた豊島台の一角を占める。南側は神田川に...", "fX": 139.7075775, "fY": 35.7176815 }, "geometry": { "type": "Point", "coordinates": [ 139.707577500000014, 35.7176815 ] } },
{ "type": "Feature", "properties": { "id": 240, "title": "浦戸湾", "pref": "高知県", "label": "浦戸湾", "img": "urado_bay", "url": "https://twitter.com/tochirinuru/status/1726208704549167149", "text": "土佐湾奥に位置する。仁淀川由来の砂礫が沿岸流で竜頭岬を回り込んだところに堆積し、砂嘴が成長した種崎半...", "fX": 133.5673355, "fY": 33.5121615 }, "geometry": { "type": "Point", "coordinates": [ 133.567335500000013, 33.5121615 ] } },
{ "type": "Feature", "properties": { "id": 241, "title": "甲府盆地南部", "pref": "山梨県", "label": "甲府盆地南部", "img": "southern_kofu_basin", "url": "https://twitter.com/tochirinuru/status/1726574863476052224", "text": "釜無川や笛吹川などが合流し富士川として流れ出る場所で、古来から水害が多い。中規模の河川は天井川になっ...", "fX": 138.4830735, "fY": 35.5714285 }, "geometry": { "type": "Point", "coordinates": [ 138.483073499999989, 35.5714285 ] } },
{ "type": "Feature", "properties": { "id": 242, "title": "大間々", "pref": "群馬県", "label": "大間間", "img": "omama", "url": "https://twitter.com/tochirinuru/status/1726933476677419426", "text": "赤城山麓と足尾山地の間から流れ出た渡良瀬川が形成した広大な扇状地が広がる。段丘崖を境に複数の段丘面が...", "fX": 139.3051385, "fY": 36.415776 }, "geometry": { "type": "Point", "coordinates": [ 139.3051385, 36.415776 ] } },
{ "type": "Feature", "properties": { "id": 243, "title": "大竹", "pref": "広島県", "label": "大竹", "img": "otake", "url": "https://twitter.com/tochirinuru/status/1727295868767027393", "text": "小瀬川河口に位置する。かつて分流が多く国境争いが頻発したが、19世紀初め現流路への一本化で国境が画定...", "fX": 132.1966405, "fY": 34.209412 }, "geometry": { "type": "Point", "coordinates": [ 132.1966405, 34.209412 ] } },
{ "type": "Feature", "properties": { "id": 244, "title": "下妻", "pref": "茨城県", "label": "下妻", "img": "shimotsuma", "url": "https://twitter.com/tochirinuru/status/1727658256510964084", "text": "鬼怒川と小貝川にはさまれた下館台地南端に位置する。台地周囲や沼沢地や低湿地が広がり、古代には東南方で...", "fX": 139.9525595, "fY": 36.1991045 }, "geometry": { "type": "Point", "coordinates": [ 139.9525595, 36.1991045 ] } },
{ "type": "Feature", "properties": { "id": 245, "title": "英虞湾", "pref": "三重県", "label": "英虞湾", "img": "ago_bay", "url": "https://twitter.com/tochirinuru/status/1728020643424379191", "text": "志摩半島の南西端に位置する。隆起した海食台地が河川に侵食された後に沈降して複雑なリアス海岸を持つ多島...", "fX": 136.828451, "fY": 34.310768 }, "geometry": { "type": "Point", "coordinates": [ 136.828451, 34.310768 ] } },
{ "type": "Feature", "properties": { "id": 246, "title": "津南", "pref": "新潟県", "label": "津南", "img": "tsunan", "url": "https://twitter.com/tochirinuru/status/1728383039687032966", "text": "十日町盆地の南端に位置する。信濃川右岸には大規模な河岸段丘が発達し、特に支流の中津川合流点付近には日...", "fX": 138.678746, "fY": 37.0262805 }, "geometry": { "type": "Point", "coordinates": [ 138.678746, 37.0262805 ] } },
{ "type": "Feature", "properties": { "id": 247, "title": "銚子", "pref": "千葉県", "label": "銚子", "img": "choshi", "url": "https://twitter.com/tochirinuru/status/1728745424607953120", "text": "太平洋に突き出た半島の先端に位置する。利根川東遷により河口に位置する舟運の物資の集散地として発展した...", "fX": 140.841465, "fY": 35.7216325 }, "geometry": { "type": "Point", "coordinates": [ 140.841465, 35.7216325 ] } },
{ "type": "Feature", "properties": { "id": 248, "title": "伏木", "pref": "富山県", "label": "伏木", "img": "fushiki", "url": "https://twitter.com/tochirinuru/status/1729107812255437088", "text": "小矢部川河口に位置する。伏木港は近世に北前船の寄港地や舟運の物資集散地として発展。かつて庄川は小矢部...", "fX": 137.053714, "fY": 36.7842945 }, "geometry": { "type": "Point", "coordinates": [ 137.053714, 36.7842945 ] } },
{ "type": "Feature", "properties": { "id": 249, "title": "小松島", "pref": "徳島県", "label": "小松島", "img": "komatsushima", "url": "https://twitter.com/tochirinuru/status/1729472708071846210", "text": "古くから四国の玄関口として発展した港町。那賀川由来の土砂が沿岸流で堆積した砂嘴である和田島によって小...", "fX": 134.598527, "fY": 33.9904335 }, "geometry": { "type": "Point", "coordinates": [ 134.598527, 33.9904335 ] } },
{ "type": "Feature", "properties": { "id": 250, "title": "新横浜", "pref": "神奈川県", "label": "新横浜", "img": "shin-yokohama", "url": "https://twitter.com/tochirinuru/status/1729832591510134840", "text": "鶴見川中流域に位置する。水害が多い場所でかつては湿地帯が広がっていたが、新幹線駅の開業を機に急速に都...", "fX": 139.605739, "fY": 35.5181085 }, "geometry": { "type": "Point", "coordinates": [ 139.605739, 35.5181085 ] } },
{ "type": "Feature", "properties": { "id": 251, "title": "伊那", "pref": "長野県", "label": "伊那", "img": "ina", "url": "https://twitter.com/tochirinuru/status/1730194975466680531", "text": "伊那盆地北部に位置する。天竜川左岸には支流の三峰川による扇状地が削られて形成された河岸段丘が広がる。...", "fX": 137.983775, "fY": 35.8320205 }, "geometry": { "type": "Point", "coordinates": [ 137.983775, 35.8320205 ] } },
{ "type": "Feature", "properties": { "id": 252, "title": "武庫平野", "pref": "兵庫県", "label": "武庫平野", "img": "muko_plain", "url": "https://twitter.com/tochirinuru/status/1730557362056950070", "text": "伊丹台地は東西を流れる猪名川と武庫川の扇状地が隆起し、両側を両河川に削られた台地。河川の開析や断層活...", "fX": 135.385852, "fY": 34.7922605 }, "geometry": { "type": "Point", "coordinates": [ 135.385852, 34.7922605 ] } },
{ "type": "Feature", "properties": { "id": 253, "title": "世田谷", "pref": "東京都", "label": "世田谷", "img": "setagaya", "url": "https://twitter.com/tochirinuru/status/1730892463811006473", "text": "武蔵野台地が小河川によって刻まれた大小の谷が縦横に横切る起伏の多い地形。尾根筋を通る旧大山道（旧玉川...", "fX": 139.6481395, "fY": 35.646291 }, "geometry": { "type": "Point", "coordinates": [ 139.648139500000013, 35.646291 ] } },
{ "type": "Feature", "properties": { "id": 254, "title": "太田川低地", "pref": "静岡県", "label": "太田川低地", "img": "otagawa_lowland", "url": "https://twitter.com/tochirinuru/status/1731284647051510096", "text": "太田川下流はかつて広大な低湿地帯が広がり、砂州で閉ざされた大小の潟湖が点在ていた。近世初期に新田開発...", "fX": 137.890391, "fY": 34.70033 }, "geometry": { "type": "Point", "coordinates": [ 137.890391, 34.70033 ] } },
{ "type": "Feature", "properties": { "id": 255, "title": "浮島", "pref": "茨城県", "label": "浮島", "img": "ukishima", "url": "https://twitter.com/tochirinuru/status/1731644523904725221", "text": "霞ヶ浦南岸に位置する。かつては文字通り霞ヶ浦に浮かぶ島で、常陸国風土記など歴史にもたびたび登場し多く...", "fX": 140.431709, "fY": 35.9657305 }, "geometry": { "type": "Point", "coordinates": [ 140.431709, 35.9657305 ] } },
{ "type": "Feature", "properties": { "id": 256, "title": "糸島半島", "pref": "福岡県", "label": "糸島半島", "img": "itoshima_peninsula", "url": "https://twitter.com/tochirinuru/status/1732012332581294190", "text": "太古は半島全体が島で、瑞梅寺川や雷山川からの土砂の堆積で九州と陸続きの半島になったとされる。古代には...", "fX": 130.183139, "fY": 33.5886295 }, "geometry": { "type": "Point", "coordinates": [ 130.183139, 33.5886295 ] } },
{ "type": "Feature", "properties": { "id": 257, "title": "加治川", "pref": "新潟県", "label": "加治川", "img": "kaji_river", "url": "https://twitter.com/tochirinuru/status/1732369301611348335", "text": "加治川はかつて新潟砂丘にはばまれ、潟湖である福島潟や紫雲寺潟などに注いでいた。中世末から河川改修が繰...", "fX": 139.3102455, "fY": 37.9518725 }, "geometry": { "type": "Point", "coordinates": [ 139.3102455, 37.9518725 ] } },
{ "type": "Feature", "properties": { "id": 258, "title": "岩倉", "pref": "京都府", "label": "岩倉", "img": "iwakura", "url": "https://twitter.com/tochirinuru/status/1732731684896776541", "text": "京都盆地北東部から松ヶ崎山地で隔てられた小盆地（岩倉盆地）を形成する。岩倉川は北東部で扇状地、中南部...", "fX": 135.774944, "fY": 35.068181 }, "geometry": { "type": "Point", "coordinates": [ 135.774944, 35.068181 ] } },
{ "type": "Feature", "properties": { "id": 259, "title": "羽田", "pref": "東京都", "label": "羽田", "img": "haneda", "url": "https://twitter.com/tochirinuru/status/1733109411726651640", "text": "多摩川河口に位置する。かつては沖合には広大な干潟が広がっていた。近世から干潟の干拓が行われ、戦前は干...", "fX": 139.734539, "fY": 35.569389 }, "geometry": { "type": "Point", "coordinates": [ 139.734539, 35.569389 ] } },
{ "type": "Feature", "properties": { "id": 260, "title": "犬山", "pref": "愛知県", "label": "犬山", "img": "inuyama", "url": "https://twitter.com/tochirinuru/status/1733456608867578028", "text": "かつての犬山城の城下町。濃尾平野に出た木曽川が形成する犬山扇状地の扇頂に位置する。現存天守が建つ犬山...", "fX": 136.9377995, "fY": 35.3805965 }, "geometry": { "type": "Point", "coordinates": [ 136.937799500000011, 35.3805965 ] } },
{ "type": "Feature", "properties": { "id": 261, "title": "我孫子", "pref": "千葉県", "label": "我孫子", "img": "abiko", "url": "https://twitter.com/tochirinuru/status/1733818850096054582", "text": "我孫子台地上に位置する。南方の手賀沼は中世末までの香取海のおぼれ谷が土砂でふさがれたもので、近世以降...", "fX": 140.0646115, "fY": 35.8627305 }, "geometry": { "type": "Point", "coordinates": [ 140.064611500000012, 35.8627305 ] } },
{ "type": "Feature", "properties": { "id": 262, "title": "飯山盆地", "pref": "長野県", "label": "飯山盆地", "img": "iiyama_basin", "url": "https://twitter.com/tochirinuru/status/1734181235776237598", "text": "千曲川の最下流域に位置する。左岸は南北方向に走る長野盆地西縁断層の活動によって隆起した長峰丘陵を境に...", "fX": 138.38645, "fY": 36.8723575 }, "geometry": { "type": "Point", "coordinates": [ 138.38645, 36.8723575 ] } },
{ "type": "Feature", "properties": { "id": 263, "title": "周桑平野", "pref": "愛媛県", "label": "周桑平野", "img": "shuso_plain", "url": "https://twitter.com/tochirinuru/status/1734543623063064825", "text": "高縄半島のつけ根に位置する。中山川や新川などが形成した広大な扇状地が広がる。上流が花崗岩地質の大明神...", "fX": 133.0724575, "fY": 33.9147785 }, "geometry": { "type": "Point", "coordinates": [ 133.072457500000013, 33.9147785 ] } },
{ "type": "Feature", "properties": { "id": 264, "title": "乱川", "pref": "山形県", "label": "乱川", "img": "midare_river", "url": "https://twitter.com/tochirinuru/status/1734906013751619805", "text": "最上川の右岸に山形盆地最大の扇状地を形成する。乱川のほか村山野川、白水川、押切川などによる複合扇状地...", "fX": 140.401819, "fY": 38.418112 }, "geometry": { "type": "Point", "coordinates": [ 140.401819, 38.418112 ] } },
{ "type": "Feature", "properties": { "id": 265, "title": "日本坂", "pref": "静岡県", "label": "日本坂", "img": "nihonzaka", "url": "https://twitter.com/tochirinuru/status/1735268400694276449", "text": "高草山地は静岡平野と志太平野を隔てる。東端の大崩海岸は山地が直接駿河湾に臨む海食崖となっており、その...", "fX": 138.332634, "fY": 34.9220265 }, "geometry": { "type": "Point", "coordinates": [ 138.332634, 34.9220265 ] } },
{ "type": "Feature", "properties": { "id": 266, "title": "青梅", "pref": "東京都", "label": "青梅", "img": "ome", "url": "https://twitter.com/tochirinuru/status/1735631008584876495", "text": "奥多摩山地から流れ出た多摩川が形成した扇状地の扇頂に位置する。多摩川が太古より狭山丘陵をはさんで南北...", "fX": 139.3154815, "fY": 35.784797 }, "geometry": { "type": "Point", "coordinates": [ 139.3154815, 35.784797 ] } },
{ "type": "Feature", "properties": { "id": 267, "title": "米子平野", "pref": "鳥取県", "label": "米子平野", "img": "yonago_plain", "url": "https://twitter.com/tochirinuru/status/1735993176937353313", "text": "山地から流れ出た日野川が広大な扇状地を形成する。日野川は水害が多く、主流は有史以来東から西へ3度も移...", "fX": 133.374066, "fY": 35.420691 }, "geometry": { "type": "Point", "coordinates": [ 133.374066, 35.420691 ] } },
{ "type": "Feature", "properties": { "id": 268, "title": "秦野", "pref": "神奈川県", "label": "秦野", "img": "hadano", "url": "https://twitter.com/tochirinuru/status/1736355564655903117", "text": "金目川などの扇状地でできた構造盆地。金目川や四十八瀬川の流路は渋沢断層の活動による河川争奪を経ており...", "fX": 139.216304, "fY": 35.3755225 }, "geometry": { "type": "Point", "coordinates": [ 139.216304, 35.3755225 ] } },
{ "type": "Feature", "properties": { "id": 269, "title": "小千谷", "pref": "新潟県", "label": "小千谷", "img": "ojiya", "url": "https://twitter.com/tochirinuru/status/1736718155224097086", "text": "信濃川が越後平野に流れ出る場所に位置する。複数面の台地や段丘が発達しており、断層の活動による隆起や褶...", "fX": 138.803072, "fY": 37.340008 }, "geometry": { "type": "Point", "coordinates": [ 138.803072, 37.340008 ] } },
{ "type": "Feature", "properties": { "id": 270, "title": "堅田", "pref": "滋賀県", "label": "堅田", "img": "katata", "url": "https://twitter.com/tochirinuru/status/1737080337812074499", "text": "琵琶湖西岸に位置する。堅田断層の活動で隆起、褶曲した堅田丘陵は古琵琶湖層群と呼ばれる地層で覆われてお...", "fX": 135.900922, "fY": 35.1189125 }, "geometry": { "type": "Point", "coordinates": [ 135.900922, 35.1189125 ] } },
{ "type": "Feature", "properties": { "id": 271, "title": "小櫃川", "pref": "千葉県", "label": "小櫃川", "img": "obitsu_river", "url": "https://twitter.com/tochirinuru/status/1737442728911503763", "text": "上総丘陵を流れ出た小櫃川が下流で広大な三角州を形成する。沖合には日本最大規模の盤州干潟が広がり、埋め...", "fX": 139.9279045, "fY": 35.4134025 }, "geometry": { "type": "Point", "coordinates": [ 139.927904500000011, 35.4134025 ] } },